<?xml version="1.0" encoding="UTF-8"?>
<doc>
    <objects>
        <object class="WED_Root" id="1" parent_id="0">
            <sources/>
            <viewers/>
            <children>
                <child id="2"/>
                <child id="3"/>
                <child id="4"/>
            </children>
            <hierarchy name="root"/>
        </object>
        <object class="WED_Select" id="2" parent_id="1">
            <sources/>
            <viewers/>
            <children/>
            <hierarchy name="selection"/>
            <selection>
                <sel id="1245"/>
            </selection>
        </object>
        <object class="WED_Runway" id="18" parent_id="563">
            <sources/>
            <viewers/>
            <children>
                <child id="19"/>
                <child id="20"/>
            </children>
            <hierarchy hidden="0" locked="0" name="11/29"/>
            <line width="150.00"/>
            <runway REIL1="None" REIL2="None" TDZL1="0" TDZL2="0" app_lites1="None" app_lites2="None" blastpad1="0.0" blastpad2="0.0" center_lites="0" displaced1="0.0" displaced2="0.0" distance_signs="0" edge_lites="None" markings1="Visual" markings2="Visual" roughness="0.20" shoulder="None" surface="Grass"/>
        </object>
        <object class="WED_TextureBezierNode" id="8210" parent_id="8206">
            <sources/>
            <viewers/>
            <children/>
            <hierarchy hidden="0" locked="0" name="Node 4"/>
            <point ctrl_latitude_hi="0.000000000" ctrl_latitude_lo="0.000000000" ctrl_longitude_hi="0.000000000" ctrl_longitude_lo="0.000000000" latitude="47.615977379" longitude="19.144873530" split="0"/>
            <texture_node s="0.0000" sc_hi="0.0000" sc_lo="0.0000" t="1.0000" tc_hi="0.0000" tc_lo="0.0000"/>
        </object>
        <object class="WED_ObjPlacement" id="5650" parent_id="894">
            <sources/>
            <viewers/>
            <children/>
            <hierarchy hidden="0" locked="0" name="objects/LHDK-mi2_micsu.obj"/>
            <point heading="0.00" latitude="47.617689902" longitude="19.141912189"/>
            <obj_placement custom_msl="0" msl="0.000" resource="objects/airplanes/LHDK-mi2_micsu.obj" show_level="1 Default"/>
        </object>
        <object class="WED_KeyObjects" id="3" parent_id="1">
            <sources/>
            <viewers/>
            <children/>
            <hierarchy name="choices"/>
            <keys>
                <key id="5" name="airport"/>
            </keys>
        </object>
        <object class="WED_RunwayNode" id="19" parent_id="18">
            <sources/>
            <viewers/>
            <children/>
            <hierarchy hidden="0" locked="0" name="Start"/>
            <point latitude="47.614579054" longitude="19.137924764"/>
        </object>
        <object class="WED_DrapedOrthophoto" id="8211" parent_id="8420">
            <sources/>
            <viewers/>
            <children>
                <child id="8212"/>
            </children>
            <hierarchy hidden="0" locked="0" name="szegelyjelzo_1.pol"/>
            <draped_orthophoto heading="28.2" length="1.64" resource="Polygons/szegelyjelzo_1.pol" tex_bottom="0.000" tex_left="0.000" tex_right="1.000" tex_top="1.000" width="5.08"/>
        </object>
        <object class="WED_ObjPlacement" id="5651" parent_id="8071">
            <sources/>
            <viewers/>
            <children/>
            <hierarchy hidden="0" locked="0" name="objects/LHDK-bruki.obj"/>
            <point heading="0.00" latitude="47.617171541" longitude="19.144599823"/>
            <obj_placement custom_msl="0" msl="0.000" resource="objects/buildings/LHDK-bruki.obj" show_level="1 Default"/>
        </object>
        <object class="WED_Group" id="4" parent_id="1">
            <sources/>
            <viewers/>
            <children>
                <child id="5"/>
                <child id="674"/>
                <child id="8051"/>
            </children>
            <hierarchy hidden="0" locked="0" name="world"/>
        </object>
        <object class="WED_RunwayNode" id="20" parent_id="18">
            <sources/>
            <viewers/>
            <children/>
            <hierarchy hidden="0" locked="0" name="End"/>
            <point latitude="47.611295230" longitude="19.148237883"/>
        </object>
        <object class="WED_Ring" id="8212" parent_id="8211">
            <sources/>
            <viewers/>
            <children>
                <child id="8213"/>
                <child id="8214"/>
                <child id="8215"/>
                <child id="8216"/>
            </children>
            <hierarchy hidden="0" locked="0" name="Orthophoto 1 Outer Ring"/>
        </object>
        <object class="WED_Airport" id="5" parent_id="4">
            <sources/>
            <viewers/>
            <children>
                <child id="8054"/>
                <child id="8052"/>
                <child id="8419"/>
                <child id="8910"/>
                <child id="8003"/>
            </children>
            <hierarchy hidden="0" locked="0" name="Dunakeszi"/>
            <airport always_flatten="0" drive_on_left="0" elevation="126.0" has_atc="1" icao="LHDK" kind="Airport" scenery_id="-1"/>
            <meta_data>
                <meta_data_entry pair="city,Dunakeszi"/>
                <meta_data_entry pair="country,Hungary"/>
                <meta_data_entry pair="icao_code,LHDK"/>
                <meta_data_entry pair="region_code,LH"/>
                <meta_data_entry pair="state,Pest"/>
                <meta_data_entry pair="transition_alt,1000"/>
            </meta_data>
        </object>
        <object class="WED_DrapedOrthophoto" id="37" parent_id="8051">
            <sources/>
            <viewers/>
            <children>
                <child id="38"/>
            </children>
            <hierarchy hidden="0" locked="0" name="Dunakeszi.png"/>
            <draped_orthophoto heading="0.0" length="0.00" resource="reference images\Dunakeszi.png" tex_bottom="0.000" tex_left="0.000" tex_right="0.000" tex_top="0.000" width="0.00"/>
        </object>
        <object class="WED_DrapedOrthophoto" id="8229" parent_id="8420">
            <sources/>
            <viewers/>
            <children>
                <child id="8230"/>
            </children>
            <hierarchy hidden="0" locked="0" name="szegelyjelzo_1.pol"/>
            <draped_orthophoto heading="28.2" length="1.64" resource="Polygons/szegelyjelzo_1.pol" tex_bottom="0.000" tex_left="0.000" tex_right="1.000" tex_top="1.000" width="5.08"/>
        </object>
        <object class="WED_SimpleBoundaryNode" id="613" parent_id="611">
            <sources/>
            <viewers/>
            <children/>
            <hierarchy hidden="0" locked="0" name="End"/>
            <point latitude="47.617255271" longitude="19.139013173"/>
        </object>
        <object class="WED_Ring" id="38" parent_id="37">
            <sources/>
            <viewers/>
            <children>
                <child id="42"/>
                <child id="41"/>
                <child id="40"/>
                <child id="39"/>
            </children>
            <hierarchy hidden="0" locked="0" name="Image Boundary"/>
        </object>
        <object class="WED_Ring" id="8230" parent_id="8229">
            <sources/>
            <viewers/>
            <children>
                <child id="8231"/>
                <child id="8232"/>
                <child id="8233"/>
                <child id="8234"/>
            </children>
            <hierarchy hidden="0" locked="0" name="Orthophoto 1 Outer Ring"/>
        </object>
        <object class="WED_ExclusionZone" id="614" parent_id="674">
            <sources/>
            <viewers/>
            <children>
                <child id="615"/>
                <child id="616"/>
            </children>
            <hierarchy hidden="0" locked="0" name="Exclusion Zone 12"/>
            <excluzions>
                <exclusion value="Objects"/>
                <exclusion value="Facades"/>
                <exclusion value="Forests"/>
                <exclusion value="Draped Polygons"/>
            </excluzions>
        </object>
        <object class="WED_TextureNode" id="39" parent_id="38">
            <sources/>
            <viewers/>
            <children/>
            <hierarchy hidden="0" locked="0" name="Corner 4"/>
            <point latitude="47.606916161" longitude="19.135531736"/>
            <texture_node s="0.0000" t="0.0000"/>
        </object>
        <object class="WED_TextureBezierNode" id="8231" parent_id="8230">
            <sources/>
            <viewers/>
            <children/>
            <hierarchy hidden="0" locked="0" name="Node 1"/>
            <point ctrl_latitude_hi="0.000000000" ctrl_latitude_lo="0.000000000" ctrl_longitude_hi="0.000000000" ctrl_longitude_lo="0.000000000" latitude="47.614501625" longitude="19.149011402" split="0"/>
            <texture_node s="0.0000" sc_hi="0.0000" sc_lo="0.0000" t="0.0000" tc_hi="0.0000" tc_lo="0.0000"/>
        </object>
        <object class="WED_ObjPlacement" id="5671" parent_id="894">
            <sources/>
            <viewers/>
            <children/>
            <hierarchy hidden="0" locked="0" name="objects/LHDK-mi2_mics.obj"/>
            <point heading="0.00" latitude="47.617689902" longitude="19.141912189"/>
            <obj_placement custom_msl="0" msl="0.000" resource="objects/airplanes/LHDK-mi2_mics.obj" show_level="1 Default"/>
        </object>
        <object class="WED_SimpleBoundaryNode" id="615" parent_id="614">
            <sources/>
            <viewers/>
            <children/>
            <hierarchy hidden="0" locked="0" name="Start"/>
            <point latitude="47.617556112" longitude="19.138599510"/>
        </object>
        <object class="WED_TextureNode" id="40" parent_id="38">
            <sources/>
            <viewers/>
            <children/>
            <hierarchy hidden="0" locked="0" name="Corner 3"/>
            <point latitude="47.618626836" longitude="19.135435232"/>
            <texture_node s="0.0000" t="1.0000"/>
        </object>
        <object class="WED_TextureBezierNode" id="8232" parent_id="8230">
            <sources/>
            <viewers/>
            <children/>
            <hierarchy hidden="0" locked="0" name="Node 2"/>
            <point ctrl_latitude_hi="0.000000000" ctrl_latitude_lo="0.000000000" ctrl_longitude_hi="0.000000000" ctrl_longitude_lo="0.000000000" latitude="47.614480970" longitude="19.149071912" split="0"/>
            <texture_node s="1.0000" sc_hi="0.0000" sc_lo="0.0000" t="0.0000" tc_hi="0.0000" tc_lo="0.0000"/>
        </object>
        <object class="WED_ObjPlacement" id="5672" parent_id="894">
            <sources/>
            <viewers/>
            <children/>
            <hierarchy hidden="0" locked="0" name="objects/LHDK-an2_yhf.obj"/>
            <point heading="0.00" latitude="47.616312252" longitude="19.145394439"/>
            <obj_placement custom_msl="0" msl="0.000" resource="objects/airplanes/LHDK-an2_yhf.obj" show_level="1 Default"/>
        </object>
        <object class="WED_SimpleBoundaryNode" id="616" parent_id="614">
            <sources/>
            <viewers/>
            <children/>
            <hierarchy hidden="0" locked="0" name="End"/>
            <point latitude="47.615909628" longitude="19.143590892"/>
        </object>
        <object class="WED_TextureNode" id="41" parent_id="38">
            <sources/>
            <viewers/>
            <children/>
            <hierarchy hidden="0" locked="0" name="Corner 2"/>
            <point latitude="47.618684532" longitude="19.152293032"/>
            <texture_node s="1.0000" t="1.0000"/>
        </object>
        <object class="WED_TextureBezierNode" id="8233" parent_id="8230">
            <sources/>
            <viewers/>
            <children/>
            <hierarchy hidden="0" locked="0" name="Node 3"/>
            <point ctrl_latitude_hi="0.000000000" ctrl_latitude_lo="0.000000000" ctrl_longitude_hi="0.000000000" ctrl_longitude_lo="0.000000000" latitude="47.614493380" longitude="19.149080561" split="0"/>
            <texture_node s="1.0000" sc_hi="0.0000" sc_lo="0.0000" t="1.0000" tc_hi="0.0000" tc_lo="0.0000"/>
        </object>
        <object class="WED_ExclusionZone" id="617" parent_id="674">
            <sources/>
            <viewers/>
            <children>
                <child id="618"/>
                <child id="619"/>
            </children>
            <hierarchy hidden="0" locked="0" name="Exclusion Zone 13"/>
            <excluzions>
                <exclusion value="Objects"/>
                <exclusion value="Facades"/>
                <exclusion value="Forests"/>
                <exclusion value="Road Networks"/>
                <exclusion value="Draped Polygons"/>
            </excluzions>
        </object>
        <object class="WED_TextureNode" id="42" parent_id="38">
            <sources/>
            <viewers/>
            <children/>
            <hierarchy hidden="0" locked="0" name="Corner 1"/>
            <point latitude="47.606973857" longitude="19.152389535"/>
            <texture_node s="1.0000" t="0.0000"/>
        </object>
        <object class="WED_TextureBezierNode" id="8234" parent_id="8230">
            <sources/>
            <viewers/>
            <children/>
            <hierarchy hidden="0" locked="0" name="Node 4"/>
            <point ctrl_latitude_hi="0.000000000" ctrl_latitude_lo="0.000000000" ctrl_longitude_hi="0.000000000" ctrl_longitude_lo="0.000000000" latitude="47.614513648" longitude="19.149020964" split="0"/>
            <texture_node s="0.0000" sc_hi="0.0000" sc_lo="0.0000" t="1.0000" tc_hi="0.0000" tc_lo="0.0000"/>
        </object>
        <object class="WED_ObjPlacement" id="5674" parent_id="8068">
            <sources/>
            <viewers/>
            <children/>
            <hierarchy hidden="0" locked="0" name="objects/LHDK-sargany_2.obj"/>
            <point heading="0.00" latitude="47.617710959" longitude="19.146516608"/>
            <obj_placement custom_msl="0" msl="0.000" resource="objects/airplanes/LHDK-sargany_2.obj" show_level="1 Default"/>
        </object>
        <object class="WED_SimpleBoundaryNode" id="618" parent_id="617">
            <sources/>
            <viewers/>
            <children/>
            <hierarchy hidden="0" locked="0" name="Start"/>
            <point latitude="47.617068058" longitude="19.142125218"/>
        </object>
        <object class="WED_AirportChain" id="43" parent_id="44">
            <sources/>
            <viewers/>
            <children>
                <child id="45"/>
                <child id="46"/>
                <child id="47"/>
                <child id="48"/>
                <child id="49"/>
                <child id="50"/>
                <child id="51"/>
                <child id="52"/>
                <child id="53"/>
                <child id="54"/>
                <child id="55"/>
                <child id="56"/>
                <child id="57"/>
                <child id="58"/>
                <child id="59"/>
                <child id="60"/>
                <child id="61"/>
                <child id="62"/>
                <child id="63"/>
                <child id="64"/>
            </children>
            <hierarchy hidden="0" locked="0" name="Airport Boundary 1 Outer Ring"/>
            <airport_chain closed="1"/>
        </object>
        <object class="WED_DrapedOrthophoto" id="8235" parent_id="8420">
            <sources/>
            <viewers/>
            <children>
                <child id="8236"/>
            </children>
            <hierarchy hidden="0" locked="0" name="szegelyjelzo_1.pol"/>
            <draped_orthophoto heading="28.2" length="1.64" resource="Polygons/szegelyjelzo_1.pol" tex_bottom="0.000" tex_left="0.000" tex_right="1.000" tex_top="1.000" width="5.08"/>
        </object>
        <object class="WED_SimpleBoundaryNode" id="619" parent_id="617">
            <sources/>
            <viewers/>
            <children/>
            <hierarchy hidden="0" locked="0" name="End"/>
            <point latitude="47.613280562" longitude="19.149093792"/>
        </object>
        <object class="WED_AirportBoundary" id="44" parent_id="562">
            <sources/>
            <viewers/>
            <children>
                <child id="43"/>
            </children>
            <hierarchy hidden="0" locked="1" name="Airport Boundary 1"/>
        </object>
        <object class="WED_Ring" id="8236" parent_id="8235">
            <sources/>
            <viewers/>
            <children>
                <child id="8237"/>
                <child id="8238"/>
                <child id="8239"/>
                <child id="8240"/>
            </children>
            <hierarchy hidden="0" locked="0" name="Orthophoto 1 Outer Ring"/>
        </object>
        <object class="WED_ExclusionZone" id="620" parent_id="674">
            <sources/>
            <viewers/>
            <children>
                <child id="621"/>
                <child id="622"/>
            </children>
            <hierarchy hidden="0" locked="0" name="Exclusion Zone 14"/>
            <excluzions>
                <exclusion value="Objects"/>
                <exclusion value="Facades"/>
                <exclusion value="Forests"/>
                <exclusion value="Draped Polygons"/>
            </excluzions>
        </object>
        <object class="WED_AirportNode" id="45" parent_id="43">
            <sources/>
            <viewers/>
            <children/>
            <hierarchy hidden="0" locked="0" name="Node 1"/>
            <point ctrl_latitude_hi="0.000000000" ctrl_latitude_lo="0.000000000" ctrl_longitude_hi="0.000000000" ctrl_longitude_lo="0.000000000" latitude="47.615903312" longitude="19.137805797" split="0"/>
            <markings/>
        </object>
        <object class="WED_TextureBezierNode" id="8237" parent_id="8236">
            <sources/>
            <viewers/>
            <children/>
            <hierarchy hidden="0" locked="0" name="Node 1"/>
            <point ctrl_latitude_hi="0.000000000" ctrl_latitude_lo="0.000000000" ctrl_longitude_hi="0.000000000" ctrl_longitude_lo="0.000000000" latitude="47.614202831" longitude="19.149864782" split="0"/>
            <texture_node s="0.0000" sc_hi="0.0000" sc_lo="0.0000" t="0.0000" tc_hi="0.0000" tc_lo="0.0000"/>
        </object>
        <object class="WED_SimpleBoundaryNode" id="621" parent_id="620">
            <sources/>
            <viewers/>
            <children/>
            <hierarchy hidden="0" locked="0" name="Start"/>
            <point latitude="47.614464407" longitude="19.150168440"/>
        </object>
        <object class="WED_AirportNode" id="46" parent_id="43">
            <sources/>
            <viewers/>
            <children/>
            <hierarchy hidden="0" locked="0" name="Node 2"/>
            <point ctrl_latitude_hi="0.000000000" ctrl_latitude_lo="0.000000000" ctrl_longitude_hi="0.000000000" ctrl_longitude_lo="0.000000000" latitude="47.615856374" longitude="19.137980340" split="0"/>
            <markings/>
        </object>
        <object class="WED_TextureBezierNode" id="8238" parent_id="8236">
            <sources/>
            <viewers/>
            <children/>
            <hierarchy hidden="0" locked="0" name="Node 2"/>
            <point ctrl_latitude_hi="0.000000000" ctrl_latitude_lo="0.000000000" ctrl_longitude_hi="0.000000000" ctrl_longitude_lo="0.000000000" latitude="47.614182176" longitude="19.149925292" split="0"/>
            <texture_node s="1.0000" sc_hi="0.0000" sc_lo="0.0000" t="0.0000" tc_hi="0.0000" tc_lo="0.0000"/>
        </object>
        <object class="WED_SimpleBoundaryNode" id="622" parent_id="620">
            <sources/>
            <viewers/>
            <children/>
            <hierarchy hidden="0" locked="0" name="End"/>
            <point latitude="47.610376101" longitude="19.147829207"/>
        </object>
        <object class="WED_AirportNode" id="47" parent_id="43">
            <sources/>
            <viewers/>
            <children/>
            <hierarchy hidden="0" locked="0" name="Node 3"/>
            <point ctrl_latitude_hi="0.000000000" ctrl_latitude_lo="0.000000000" ctrl_longitude_hi="0.000000000" ctrl_longitude_lo="0.000000000" latitude="47.611590205" longitude="19.136136875" split="0"/>
            <markings/>
        </object>
        <object class="WED_TextureBezierNode" id="8239" parent_id="8236">
            <sources/>
            <viewers/>
            <children/>
            <hierarchy hidden="0" locked="0" name="Node 3"/>
            <point ctrl_latitude_hi="0.000000000" ctrl_latitude_lo="0.000000000" ctrl_longitude_hi="0.000000000" ctrl_longitude_lo="0.000000000" latitude="47.614194586" longitude="19.149933941" split="0"/>
            <texture_node s="1.0000" sc_hi="0.0000" sc_lo="0.0000" t="1.0000" tc_hi="0.0000" tc_lo="0.0000"/>
        </object>
        <object class="WED_ObjPlacement" id="5679" parent_id="894">
            <sources/>
            <viewers/>
            <children/>
            <hierarchy hidden="0" locked="0" name="objects/LHDK-gobe.obj"/>
            <point heading="85.76" latitude="47.617520046" longitude="19.141114095"/>
            <obj_placement custom_msl="0" msl="0.000" resource="objects/airplanes/LHDK-gobe.obj" show_level="1 Default"/>
        </object>
        <object class="WED_ExclusionZone" id="623" parent_id="674">
            <sources/>
            <viewers/>
            <children>
                <child id="624"/>
                <child id="625"/>
            </children>
            <hierarchy hidden="0" locked="0" name="Exclusion Zone 15"/>
            <excluzions>
                <exclusion value="Objects"/>
                <exclusion value="Facades"/>
                <exclusion value="Forests"/>
                <exclusion value="Draped Polygons"/>
            </excluzions>
        </object>
        <object class="WED_AirportNode" id="48" parent_id="43">
            <sources/>
            <viewers/>
            <children/>
            <hierarchy hidden="0" locked="0" name="Node 4"/>
            <point ctrl_latitude_hi="0.000000000" ctrl_latitude_lo="0.000000000" ctrl_longitude_hi="0.000000000" ctrl_longitude_lo="0.000000000" latitude="47.609436639" longitude="19.143061913" split="0"/>
            <markings/>
        </object>
        <object class="WED_TextureBezierNode" id="8240" parent_id="8236">
            <sources/>
            <viewers/>
            <children/>
            <hierarchy hidden="0" locked="0" name="Node 4"/>
            <point ctrl_latitude_hi="0.000000000" ctrl_latitude_lo="0.000000000" ctrl_longitude_hi="0.000000000" ctrl_longitude_lo="0.000000000" latitude="47.614214854" longitude="19.149874344" split="0"/>
            <texture_node s="0.0000" sc_hi="0.0000" sc_lo="0.0000" t="1.0000" tc_hi="0.0000" tc_lo="0.0000"/>
        </object>
        <object class="WED_SimpleBoundaryNode" id="624" parent_id="623">
            <sources/>
            <viewers/>
            <children/>
            <hierarchy hidden="0" locked="0" name="Start"/>
            <point latitude="47.611420009" longitude="19.136539308"/>
        </object>
        <object class="WED_AirportNode" id="49" parent_id="43">
            <sources/>
            <viewers/>
            <children/>
            <hierarchy hidden="0" locked="0" name="Node 5"/>
            <point ctrl_latitude_hi="0.000000000" ctrl_latitude_lo="0.000000000" ctrl_longitude_hi="0.000000000" ctrl_longitude_lo="0.000000000" latitude="47.609031278" longitude="19.142832205" split="0"/>
            <markings/>
        </object>
        <object class="WED_DrapedOrthophoto" id="8241" parent_id="8420">
            <sources/>
            <viewers/>
            <children>
                <child id="8242"/>
            </children>
            <hierarchy hidden="0" locked="0" name="szegelyjelzo_1.pol"/>
            <draped_orthophoto heading="-75.4" length="1.52" resource="Polygons/szegelyjelzo_1.pol" tex_bottom="0.000" tex_left="0.000" tex_right="1.000" tex_top="1.000" width="4.97"/>
        </object>
        <object class="WED_ObjPlacement" id="5681" parent_id="8069">
            <sources/>
            <viewers/>
            <children/>
            <hierarchy hidden="0" locked="0" name="objects/LHDK-lhdk_ujhangar.obj"/>
            <point heading="1.09" latitude="47.617635537" longitude="19.141740389"/>
            <obj_placement custom_msl="0" msl="0.000" resource="objects/buildings/LHDK-lhdk_ujhangar.obj" show_level="1 Default"/>
        </object>
        <object class="WED_SimpleBoundaryNode" id="625" parent_id="623">
            <sources/>
            <viewers/>
            <children/>
            <hierarchy hidden="0" locked="0" name="End"/>
            <point latitude="47.613171578" longitude="19.139384975"/>
        </object>
        <object class="WED_AirportNode" id="50" parent_id="43">
            <sources/>
            <viewers/>
            <children/>
            <hierarchy hidden="0" locked="0" name="Node 6"/>
            <point ctrl_latitude_hi="0.000000000" ctrl_latitude_lo="0.000000000" ctrl_longitude_hi="0.000000000" ctrl_longitude_lo="0.000000000" latitude="47.607324882" longitude="19.147577945" split="0"/>
            <markings/>
        </object>
        <object class="WED_Ring" id="8242" parent_id="8241">
            <sources/>
            <viewers/>
            <children>
                <child id="8243"/>
                <child id="8244"/>
                <child id="8245"/>
                <child id="8246"/>
            </children>
            <hierarchy hidden="0" locked="0" name="Orthophoto 1 Outer Ring"/>
        </object>
        <object class="WED_Group" id="562" parent_id="8054">
            <sources/>
            <viewers/>
            <children>
                <child id="44"/>
            </children>
            <hierarchy hidden="0" locked="0" name="Boundary"/>
        </object>
        <object class="WED_SimpleBoundaryNode" id="8754" parent_id="8750">
            <sources/>
            <viewers/>
            <children/>
            <hierarchy hidden="0" locked="0" name="Node 3"/>
            <point latitude="47.620322606" longitude="19.139421481"/>
        </object>
        <object class="WED_AirportNode" id="51" parent_id="43">
            <sources/>
            <viewers/>
            <children/>
            <hierarchy hidden="0" locked="0" name="Node 7"/>
            <point ctrl_latitude_hi="0.000000000" ctrl_latitude_lo="0.000000000" ctrl_longitude_hi="0.000000000" ctrl_longitude_lo="0.000000000" latitude="47.609009453" longitude="19.148713660" split="0"/>
            <markings/>
        </object>
        <object class="WED_TextureBezierNode" id="8243" parent_id="8242">
            <sources/>
            <viewers/>
            <children/>
            <hierarchy hidden="0" locked="0" name="Node 1"/>
            <point ctrl_latitude_hi="0.000000000" ctrl_latitude_lo="0.000000000" ctrl_longitude_hi="0.000000000" ctrl_longitude_lo="0.000000000" latitude="47.613419877" longitude="19.149524261" split="0"/>
            <texture_node s="0.0000" sc_hi="0.0000" sc_lo="0.0000" t="0.0000" tc_hi="0.0000" tc_lo="0.0000"/>
        </object>
        <object class="WED_Group" id="563" parent_id="8054">
            <sources/>
            <viewers/>
            <children>
                <child id="18"/>
            </children>
            <hierarchy hidden="0" locked="1" name="Runway"/>
        </object>
        <object class="WED_SimpleBoundaryNode" id="8755" parent_id="8750">
            <sources/>
            <viewers/>
            <children/>
            <hierarchy hidden="0" locked="0" name="Node 4"/>
            <point latitude="47.618400852" longitude="19.140186041"/>
        </object>
        <object class="WED_AirportNode" id="52" parent_id="43">
            <sources/>
            <viewers/>
            <children/>
            <hierarchy hidden="0" locked="0" name="Node 8"/>
            <point ctrl_latitude_hi="0.000000000" ctrl_latitude_lo="0.000000000" ctrl_longitude_hi="0.000000000" ctrl_longitude_lo="0.000000000" latitude="47.611972496" longitude="19.151070883" split="0"/>
            <markings/>
        </object>
        <object class="WED_TextureBezierNode" id="8244" parent_id="8242">
            <sources/>
            <viewers/>
            <children/>
            <hierarchy hidden="0" locked="0" name="Node 2"/>
            <point ctrl_latitude_hi="0.000000000" ctrl_latitude_lo="0.000000000" ctrl_longitude_hi="0.000000000" ctrl_longitude_lo="0.000000000" latitude="47.613376519" longitude="19.149507742" split="0"/>
            <texture_node s="1.0000" sc_hi="0.0000" sc_lo="0.0000" t="0.0000" tc_hi="0.0000" tc_lo="0.0000"/>
        </object>
        <object class="WED_ObjPlacement" id="5684" parent_id="8069">
            <sources/>
            <viewers/>
            <children/>
            <hierarchy hidden="0" locked="0" name="objects/LHDK-malevhaz.obj"/>
            <point heading="0.00" latitude="47.617544344" longitude="19.142700719"/>
            <obj_placement custom_msl="0" msl="0.000" resource="objects/buildings/LHDK-malevhaz.obj" show_level="1 Default"/>
        </object>
        <object class="WED_AirportNode" id="53" parent_id="43">
            <sources/>
            <viewers/>
            <children/>
            <hierarchy hidden="0" locked="0" name="Node 9"/>
            <point ctrl_latitude_hi="0.000267194" ctrl_latitude_lo="-0.000267194" ctrl_longitude_hi="-0.000270446" ctrl_longitude_lo="0.000270446" latitude="47.612580669" longitude="19.149957772" split="0"/>
            <markings/>
        </object>
        <object class="WED_TextureBezierNode" id="8245" parent_id="8242">
            <sources/>
            <viewers/>
            <children/>
            <hierarchy hidden="0" locked="0" name="Node 3"/>
            <point ctrl_latitude_hi="0.000000000" ctrl_latitude_lo="0.000000000" ctrl_longitude_hi="0.000000000" ctrl_longitude_lo="0.000000000" latitude="47.613373230" longitude="19.149526781" split="0"/>
            <texture_node s="1.0000" sc_hi="0.0000" sc_lo="0.0000" t="1.0000" tc_hi="0.0000" tc_lo="0.0000"/>
        </object>
        <object class="WED_ATCFrequency" id="565" parent_id="8053">
            <sources/>
            <viewers/>
            <children/>
            <hierarchy name="Dunakeszi INFO"/>
            <atc_frequency freq="129.800" kind="Tower"/>
        </object>
        <object class="WED_SimpleBoundaryNode" id="8757" parent_id="8750">
            <sources/>
            <viewers/>
            <children/>
            <hierarchy hidden="0" locked="0" name="Node 6"/>
            <point latitude="47.617909583" longitude="19.142082965"/>
        </object>
        <object class="WED_AirportNode" id="54" parent_id="43">
            <sources/>
            <viewers/>
            <children/>
            <hierarchy hidden="0" locked="0" name="Node 10"/>
            <point ctrl_latitude_hi="0.000273481" ctrl_latitude_lo="-0.000273481" ctrl_longitude_hi="-0.000018651" ctrl_longitude_lo="0.000018651" latitude="47.613229196" longitude="19.149620750" split="0"/>
            <markings/>
        </object>
        <object class="WED_TextureBezierNode" id="8246" parent_id="8242">
            <sources/>
            <viewers/>
            <children/>
            <hierarchy hidden="0" locked="0" name="Node 4"/>
            <point ctrl_latitude_hi="0.000000000" ctrl_latitude_lo="0.000000000" ctrl_longitude_hi="0.000000000" ctrl_longitude_lo="0.000000000" latitude="47.613416443" longitude="19.149543855" split="0"/>
            <texture_node s="0.0000" sc_hi="0.0000" sc_lo="0.0000" t="1.0000" tc_hi="0.0000" tc_lo="0.0000"/>
        </object>
        <object class="WED_ExclusionZone" id="566" parent_id="674">
            <sources/>
            <viewers/>
            <children>
                <child id="567"/>
                <child id="568"/>
            </children>
            <hierarchy hidden="0" locked="0" name="Exclusion Zone 1"/>
            <excluzions>
                <exclusion value="Objects"/>
                <exclusion value="Facades"/>
                <exclusion value="Forests"/>
                <exclusion value="Road Networks"/>
                <exclusion value="Draped Polygons"/>
            </excluzions>
        </object>
        <object class="WED_SimpleBoundaryNode" id="8758" parent_id="8750">
            <sources/>
            <viewers/>
            <children/>
            <hierarchy hidden="0" locked="0" name="Node 7"/>
            <point latitude="47.617811513" longitude="19.142404301"/>
        </object>
        <object class="WED_AirportNode" id="55" parent_id="43">
            <sources/>
            <viewers/>
            <children/>
            <hierarchy hidden="0" locked="0" name="Node 11"/>
            <point ctrl_latitude_hi="0.000000000" ctrl_latitude_lo="0.000000000" ctrl_longitude_hi="0.000000000" ctrl_longitude_lo="0.000000000" latitude="47.613755123" longitude="19.149768904" split="0"/>
            <markings/>
        </object>
        <object class="WED_SimpleBoundaryNode" id="567" parent_id="566">
            <sources/>
            <viewers/>
            <children/>
            <hierarchy hidden="0" locked="0" name="Start"/>
            <point latitude="47.616543093" longitude="19.150942026"/>
        </object>
        <object class="WED_SimpleBoundaryNode" id="8759" parent_id="8750">
            <sources/>
            <viewers/>
            <children/>
            <hierarchy hidden="0" locked="0" name="Node 8"/>
            <point latitude="47.617735482" longitude="19.142882898"/>
        </object>
        <object class="WED_AirportNode" id="56" parent_id="43">
            <sources/>
            <viewers/>
            <children/>
            <hierarchy hidden="0" locked="0" name="Node 12"/>
            <point ctrl_latitude_hi="0.000000000" ctrl_latitude_lo="0.000000000" ctrl_longitude_hi="0.000000000" ctrl_longitude_lo="0.000000000" latitude="47.614817124" longitude="19.150389330" split="0"/>
            <markings/>
        </object>
        <object class="WED_SimpleBoundaryNode" id="568" parent_id="566">
            <sources/>
            <viewers/>
            <children/>
            <hierarchy hidden="0" locked="0" name="End"/>
            <point latitude="47.614301644" longitude="19.148376287"/>
        </object>
        <object class="WED_SimpleBoundaryNode" id="8760" parent_id="8750">
            <sources/>
            <viewers/>
            <children/>
            <hierarchy hidden="0" locked="0" name="Node 9"/>
            <point latitude="47.617871105" longitude="19.142974350"/>
        </object>
        <object class="WED_ObjPlacement" id="5688" parent_id="8071">
            <sources/>
            <viewers/>
            <children/>
            <hierarchy hidden="0" locked="0" name="objects/LHDK-lhdk1.obj"/>
            <point heading="0.00" latitude="47.617171541" longitude="19.144599823"/>
            <obj_placement custom_msl="0" msl="0.000" resource="objects/buildings/LHDK-lhdk1.obj" show_level="1 Default"/>
        </object>
        <object class="WED_AirportNode" id="57" parent_id="43">
            <sources/>
            <viewers/>
            <children/>
            <hierarchy hidden="0" locked="0" name="Node 13"/>
            <point ctrl_latitude_hi="0.000000000" ctrl_latitude_lo="0.000000000" ctrl_longitude_hi="0.000000000" ctrl_longitude_lo="0.000000000" latitude="47.615286478" longitude="19.148860802" split="0"/>
            <markings/>
        </object>
        <object class="WED_ObjPlacement" id="5689" parent_id="894">
            <sources/>
            <viewers/>
            <children/>
            <hierarchy hidden="0" locked="0" name="objects/LHDK-satan.obj"/>
            <point heading="0.00" latitude="47.608049377" longitude="19.146950015"/>
            <obj_placement custom_msl="0" msl="0.000" resource="objects/airplanes/LHDK-satan.obj" show_level="1 Default"/>
        </object>
        <object class="WED_AirportNode" id="58" parent_id="43">
            <sources/>
            <viewers/>
            <children/>
            <hierarchy hidden="0" locked="0" name="Node 14"/>
            <point ctrl_latitude_hi="0.000000000" ctrl_latitude_lo="0.000000000" ctrl_longitude_hi="0.000000000" ctrl_longitude_lo="0.000000000" latitude="47.615485150" longitude="19.148983311" split="0"/>
            <markings/>
        </object>
        <object class="WED_AirportNode" id="59" parent_id="43">
            <sources/>
            <viewers/>
            <children/>
            <hierarchy hidden="0" locked="0" name="Node 15"/>
            <point ctrl_latitude_hi="0.000000000" ctrl_latitude_lo="0.000000000" ctrl_longitude_hi="0.000000000" ctrl_longitude_lo="0.000000000" latitude="47.616447652" longitude="19.145826333" split="0"/>
            <markings/>
        </object>
        <object class="WED_DrapedOrthophoto" id="8251" parent_id="8420">
            <sources/>
            <viewers/>
            <children>
                <child id="8252"/>
            </children>
            <hierarchy hidden="0" locked="0" name="szegelyjelzo_1.pol"/>
            <draped_orthophoto heading="-75.4" length="1.52" resource="Polygons/szegelyjelzo_1.pol" tex_bottom="0.000" tex_left="0.000" tex_right="1.000" tex_top="1.000" width="4.97"/>
        </object>
        <object class="WED_AirportNode" id="60" parent_id="43">
            <sources/>
            <viewers/>
            <children/>
            <hierarchy hidden="0" locked="0" name="Node 16"/>
            <point ctrl_latitude_hi="0.000000000" ctrl_latitude_lo="0.000000000" ctrl_longitude_hi="0.000000000" ctrl_longitude_lo="0.000000000" latitude="47.617079103" longitude="19.146287762" split="0"/>
            <markings/>
        </object>
        <object class="WED_Ring" id="8252" parent_id="8251">
            <sources/>
            <viewers/>
            <children>
                <child id="8253"/>
                <child id="8254"/>
                <child id="8255"/>
                <child id="8256"/>
            </children>
            <hierarchy hidden="0" locked="0" name="Orthophoto 1 Outer Ring"/>
        </object>
        <object class="WED_ObjPlacement" id="5692" parent_id="8069">
            <sources/>
            <viewers/>
            <children/>
            <hierarchy hidden="0" locked="0" name="objects/LHDK-malevhaz_base.obj"/>
            <point heading="0.00" latitude="47.617591888" longitude="19.142654477"/>
            <obj_placement custom_msl="0" msl="0.000" resource="objects/buildings/LHDK-malevhaz_base.obj" show_level="1 Default"/>
        </object>
        <object class="WED_AirportNode" id="61" parent_id="43">
            <sources/>
            <viewers/>
            <children/>
            <hierarchy hidden="0" locked="0" name="Node 17"/>
            <point ctrl_latitude_hi="0.000000000" ctrl_latitude_lo="0.000000000" ctrl_longitude_hi="0.000000000" ctrl_longitude_lo="0.000000000" latitude="47.617909396" longitude="19.143573966" split="0"/>
            <markings/>
        </object>
        <object class="WED_TextureBezierNode" id="8253" parent_id="8252">
            <sources/>
            <viewers/>
            <children/>
            <hierarchy hidden="0" locked="0" name="Node 1"/>
            <point ctrl_latitude_hi="0.000000000" ctrl_latitude_lo="0.000000000" ctrl_longitude_hi="0.000000000" ctrl_longitude_lo="0.000000000" latitude="47.612445639" longitude="19.149300057" split="0"/>
            <texture_node s="0.0000" sc_hi="0.0000" sc_lo="0.0000" t="0.0000" tc_hi="0.0000" tc_lo="0.0000"/>
        </object>
        <object class="WED_AirportNode" id="62" parent_id="43">
            <sources/>
            <viewers/>
            <children/>
            <hierarchy hidden="0" locked="0" name="Node 18"/>
            <point ctrl_latitude_hi="0.000000000" ctrl_latitude_lo="0.000000000" ctrl_longitude_hi="0.000000000" ctrl_longitude_lo="0.000000000" latitude="47.618095309" longitude="19.141563590" split="0"/>
            <markings/>
        </object>
        <object class="WED_TextureBezierNode" id="8254" parent_id="8252">
            <sources/>
            <viewers/>
            <children/>
            <hierarchy hidden="0" locked="0" name="Node 2"/>
            <point ctrl_latitude_hi="0.000000000" ctrl_latitude_lo="0.000000000" ctrl_longitude_hi="0.000000000" ctrl_longitude_lo="0.000000000" latitude="47.612402281" longitude="19.149283537" split="0"/>
            <texture_node s="1.0000" sc_hi="0.0000" sc_lo="0.0000" t="0.0000" tc_hi="0.0000" tc_lo="0.0000"/>
        </object>
        <object class="WED_AirportNode" id="63" parent_id="43">
            <sources/>
            <viewers/>
            <children/>
            <hierarchy hidden="0" locked="0" name="Node 19"/>
            <point ctrl_latitude_hi="0.000000000" ctrl_latitude_lo="0.000000000" ctrl_longitude_hi="0.000000000" ctrl_longitude_lo="0.000000000" latitude="47.617843839" longitude="19.141404245" split="0"/>
            <markings/>
        </object>
        <object class="WED_TextureBezierNode" id="8255" parent_id="8252">
            <sources/>
            <viewers/>
            <children/>
            <hierarchy hidden="0" locked="0" name="Node 3"/>
            <point ctrl_latitude_hi="0.000000000" ctrl_latitude_lo="0.000000000" ctrl_longitude_hi="0.000000000" ctrl_longitude_lo="0.000000000" latitude="47.612398992" longitude="19.149302576" split="0"/>
            <texture_node s="1.0000" sc_hi="0.0000" sc_lo="0.0000" t="1.0000" tc_hi="0.0000" tc_lo="0.0000"/>
        </object>
        <object class="WED_ExclusionZone" id="575" parent_id="674">
            <sources/>
            <viewers/>
            <children>
                <child id="576"/>
                <child id="577"/>
            </children>
            <hierarchy hidden="0" locked="0" name="Exclusion Zone 3"/>
            <excluzions>
                <exclusion value="Objects"/>
                <exclusion value="Facades"/>
                <exclusion value="Forests"/>
                <exclusion value="Road Networks"/>
                <exclusion value="Draped Polygons"/>
            </excluzions>
        </object>
        <object class="WED_SimpleBoundaryNode" id="8767" parent_id="8750">
            <sources/>
            <viewers/>
            <children/>
            <hierarchy hidden="0" locked="0" name="Node 16"/>
            <point latitude="47.616761964" longitude="19.144906590"/>
        </object>
        <object class="WED_AirportNode" id="64" parent_id="43">
            <sources/>
            <viewers/>
            <children/>
            <hierarchy hidden="0" locked="0" name="Node 20"/>
            <point ctrl_latitude_hi="0.000000000" ctrl_latitude_lo="0.000000000" ctrl_longitude_hi="0.000000000" ctrl_longitude_lo="0.000000000" latitude="47.618625359" longitude="19.139059185" split="0"/>
            <markings/>
        </object>
        <object class="WED_TextureBezierNode" id="8256" parent_id="8252">
            <sources/>
            <viewers/>
            <children/>
            <hierarchy hidden="0" locked="0" name="Node 4"/>
            <point ctrl_latitude_hi="0.000000000" ctrl_latitude_lo="0.000000000" ctrl_longitude_hi="0.000000000" ctrl_longitude_lo="0.000000000" latitude="47.612442205" longitude="19.149319651" split="0"/>
            <texture_node s="0.0000" sc_hi="0.0000" sc_lo="0.0000" t="1.0000" tc_hi="0.0000" tc_lo="0.0000"/>
        </object>
        <object class="WED_SimpleBoundaryNode" id="576" parent_id="575">
            <sources/>
            <viewers/>
            <children/>
            <hierarchy hidden="0" locked="0" name="Start"/>
            <point latitude="47.617898706" longitude="19.147625146"/>
        </object>
        <object class="WED_SimpleBoundaryNode" id="8768" parent_id="8750">
            <sources/>
            <viewers/>
            <children/>
            <hierarchy hidden="0" locked="0" name="Node 17"/>
            <point latitude="47.616848269" longitude="19.145001698"/>
        </object>
        <object class="WED_ExclusionZone" id="635" parent_id="674">
            <sources/>
            <viewers/>
            <children>
                <child id="636"/>
                <child id="637"/>
            </children>
            <hierarchy hidden="0" locked="0" name="Exclusion Zone 16"/>
            <excluzions>
                <exclusion value="Objects"/>
                <exclusion value="Facades"/>
                <exclusion value="Forests"/>
                <exclusion value="Draped Polygons"/>
            </excluzions>
        </object>
        <object class="WED_SimpleBoundaryNode" id="636" parent_id="635">
            <sources/>
            <viewers/>
            <children/>
            <hierarchy hidden="0" locked="0" name="Start"/>
            <point latitude="47.610664412" longitude="19.138499248"/>
        </object>
        <object class="WED_SimpleBoundaryNode" id="637" parent_id="635">
            <sources/>
            <viewers/>
            <children/>
            <hierarchy hidden="0" locked="0" name="End"/>
            <point latitude="47.611497990" longitude="19.139925030"/>
        </object>
        <object class="WED_ExclusionZone" id="641" parent_id="674">
            <sources/>
            <viewers/>
            <children>
                <child id="642"/>
                <child id="643"/>
            </children>
            <hierarchy hidden="0" locked="0" name="Exclusion Zone 16"/>
            <excluzions>
                <exclusion value="Objects"/>
                <exclusion value="Facades"/>
                <exclusion value="Forests"/>
                <exclusion value="Draped Polygons"/>
            </excluzions>
        </object>
        <object class="WED_SimpleBoundaryNode" id="642" parent_id="641">
            <sources/>
            <viewers/>
            <children/>
            <hierarchy hidden="0" locked="0" name="Start"/>
            <point latitude="47.609727149" longitude="19.141454133"/>
        </object>
        <object class="WED_ForestRing" id="8834" parent_id="8835">
            <sources/>
            <viewers/>
            <children>
                <child id="8836"/>
                <child id="8837"/>
                <child id="8838"/>
                <child id="8839"/>
                <child id="8840"/>
                <child id="8841"/>
                <child id="8924"/>
                <child id="8842"/>
                <child id="8843"/>
                <child id="8844"/>
                <child id="8845"/>
                <child id="8846"/>
                <child id="8847"/>
                <child id="8848"/>
                <child id="8849"/>
                <child id="8850"/>
                <child id="8851"/>
                <child id="8852"/>
                <child id="8853"/>
                <child id="8854"/>
                <child id="8855"/>
                <child id="8856"/>
                <child id="8857"/>
                <child id="8858"/>
                <child id="8859"/>
                <child id="8860"/>
                <child id="8861"/>
                <child id="8862"/>
                <child id="8863"/>
                <child id="8864"/>
                <child id="8865"/>
                <child id="8866"/>
            </children>
            <hierarchy hidden="0" locked="0" name="Forest 28 outer ring"/>
        </object>
        <object class="WED_TextureBezierNode" id="9009" parent_id="9005">
            <sources/>
            <viewers/>
            <children/>
            <hierarchy hidden="0" locked="0" name="Node 4"/>
            <point ctrl_latitude_hi="0.000000000" ctrl_latitude_lo="0.000000000" ctrl_longitude_hi="0.000000000" ctrl_longitude_lo="0.000000000" latitude="47.616399780" longitude="19.143648798" split="0"/>
            <texture_node s="0.0000" sc_hi="0.0000" sc_lo="0.0000" t="1.0000" tc_hi="0.0000" tc_lo="0.0000"/>
        </object>
        <object class="WED_Ring" id="9011" parent_id="9010">
            <sources/>
            <viewers/>
            <children>
                <child id="9012"/>
                <child id="9013"/>
                <child id="9014"/>
                <child id="9015"/>
            </children>
            <hierarchy hidden="0" locked="0" name="Orthophoto 1 Outer Ring"/>
        </object>
        <object class="WED_TextureBezierNode" id="9012" parent_id="9011">
            <sources/>
            <viewers/>
            <children/>
            <hierarchy hidden="0" locked="0" name="Node 1"/>
            <point ctrl_latitude_hi="0.000000000" ctrl_latitude_lo="0.000000000" ctrl_longitude_hi="0.000000000" ctrl_longitude_lo="0.000000000" latitude="47.616812900" longitude="19.142400251" split="0"/>
            <texture_node s="0.0000" sc_hi="0.0000" sc_lo="0.0000" t="0.0000" tc_hi="0.0000" tc_lo="0.0000"/>
        </object>
        <object class="WED_ObjPlacement" id="4574" parent_id="910">
            <sources/>
            <viewers/>
            <children/>
            <hierarchy hidden="0" locked="0" name="objects/ag_telephonepole_0058.obj"/>
            <point heading="25.00" latitude="47.606701716" longitude="19.147826077"/>
            <obj_placement custom_msl="0" msl="0.000" resource="objects/misc/ag_telephonepole_0058.obj" show_level="1 Default"/>
        </object>
        <object class="WED_ObjPlacement" id="8670" parent_id="8672">
            <sources/>
            <viewers/>
            <children/>
            <hierarchy hidden="0" locked="0" name="szallitokocsi3(1).obj"/>
            <point heading="0.00" latitude="47.617453319" longitude="19.142433027"/>
            <obj_placement custom_msl="0" msl="0.000" resource="Objects/misc/szallitokocsi3(1).obj" show_level="1 Default"/>
        </object>
        <object class="WED_ObjPlacement" id="8158" parent_id="8159">
            <sources/>
            <viewers/>
            <children/>
            <hierarchy hidden="0" locked="0" name="hullamlemez.obj"/>
            <point heading="0.00" latitude="47.617773278" longitude="19.143107203"/>
            <obj_placement custom_msl="0" msl="0.000" resource="Objects/Buildings/hullamlemez.obj" show_level="1 Default"/>
        </object>
        <object class="WED_ObjPlacement" id="4575" parent_id="910">
            <sources/>
            <viewers/>
            <children/>
            <hierarchy hidden="0" locked="0" name="objects/ag_telephonepole_0058.obj"/>
            <point heading="25.00" latitude="47.606804714" longitude="19.147543785"/>
            <obj_placement custom_msl="0" msl="0.000" resource="objects/misc/ag_telephonepole_0058.obj" show_level="1 Default"/>
        </object>
        <object class="WED_ObjPlacement" id="8671" parent_id="8672">
            <sources/>
            <viewers/>
            <children/>
            <hierarchy hidden="0" locked="0" name="szallitokocsi3(2).obj"/>
            <point heading="0.00" latitude="47.617453319" longitude="19.142433027"/>
            <obj_placement custom_msl="0" msl="0.000" resource="Objects/misc/szallitokocsi3(2).obj" show_level="1 Default"/>
        </object>
        <object class="WED_Group" id="8159" parent_id="8069">
            <sources/>
            <viewers/>
            <children>
                <child id="8158"/>
                <child id="8057"/>
            </children>
            <hierarchy hidden="0" locked="0" name="Group 5"/>
        </object>
        <object class="WED_ObjPlacement" id="4576" parent_id="910">
            <sources/>
            <viewers/>
            <children/>
            <hierarchy hidden="0" locked="0" name="objects/ag_telephonepole_0058.obj"/>
            <point heading="25.00" latitude="47.606890546" longitude="19.147288196"/>
            <obj_placement custom_msl="0" msl="0.000" resource="objects/misc/ag_telephonepole_0058.obj" show_level="1 Default"/>
        </object>
        <object class="WED_Group" id="8672" parent_id="910">
            <sources/>
            <viewers/>
            <children>
                <child id="9202"/>
                <child id="9210"/>
                <child id="8671"/>
                <child id="9201"/>
                <child id="9209"/>
                <child id="8670"/>
            </children>
            <hierarchy hidden="0" locked="0" name="Group 6"/>
        </object>
        <object class="WED_ObjPlacement" id="4577" parent_id="910">
            <sources/>
            <viewers/>
            <children/>
            <hierarchy hidden="0" locked="0" name="objects/ag_telephonepole_0058.obj"/>
            <point heading="25.00" latitude="47.607016433" longitude="19.146960127"/>
            <obj_placement custom_msl="0" msl="0.000" resource="objects/misc/ag_telephonepole_0058.obj" show_level="1 Default"/>
        </object>
        <object class="WED_ObjPlacement" id="8673" parent_id="8675">
            <sources/>
            <viewers/>
            <children/>
            <hierarchy hidden="0" locked="0" name="szallitokocsi4(1).obj"/>
            <point heading="0.00" latitude="47.617611742" longitude="19.146284005"/>
            <obj_placement custom_msl="0" msl="0.000" resource="Objects/misc/szallitokocsi4(1).obj" show_level="1 Default"/>
        </object>
        <object class="WED_ObjPlacement" id="4578" parent_id="910">
            <sources/>
            <viewers/>
            <children/>
            <hierarchy hidden="0" locked="0" name="objects/ag_telephonepole_0058.obj"/>
            <point heading="25.00" latitude="47.607134690" longitude="19.146624429"/>
            <obj_placement custom_msl="0" msl="0.000" resource="objects/misc/ag_telephonepole_0058.obj" show_level="1 Default"/>
        </object>
        <object class="WED_ObjPlacement" id="8674" parent_id="8675">
            <sources/>
            <viewers/>
            <children/>
            <hierarchy hidden="0" locked="0" name="szallitokocsi4(2).obj"/>
            <point heading="0.00" latitude="47.617611742" longitude="19.146284005"/>
            <obj_placement custom_msl="0" msl="0.000" resource="Objects/misc/szallitokocsi4(2).obj" show_level="1 Default"/>
        </object>
        <object class="WED_ObjPlacement" id="4579" parent_id="910">
            <sources/>
            <viewers/>
            <children/>
            <hierarchy hidden="0" locked="0" name="objects/ag_telephonepole_0058.obj"/>
            <point heading="25.00" latitude="47.607258670" longitude="19.146303989"/>
            <obj_placement custom_msl="0" msl="0.000" resource="objects/misc/ag_telephonepole_0058.obj" show_level="1 Default"/>
        </object>
        <object class="WED_Group" id="8675" parent_id="910">
            <sources/>
            <viewers/>
            <children>
                <child id="8674"/>
                <child id="8673"/>
            </children>
            <hierarchy hidden="0" locked="0" name="Group 7"/>
        </object>
        <object class="WED_ObjPlacement" id="4580" parent_id="910">
            <sources/>
            <viewers/>
            <children/>
            <hierarchy hidden="0" locked="0" name="objects/ag_telephonepole_0058.obj"/>
            <point heading="25.00" latitude="47.607390279" longitude="19.145909162"/>
            <obj_placement custom_msl="0" msl="0.000" resource="objects/misc/ag_telephonepole_0058.obj" show_level="1 Default"/>
        </object>
        <object class="WED_ObjPlacement" id="4581" parent_id="910">
            <sources/>
            <viewers/>
            <children/>
            <hierarchy hidden="0" locked="0" name="objects/ag_telephonepole_0058.obj"/>
            <point heading="25.00" latitude="47.607537147" longitude="19.145476187"/>
            <obj_placement custom_msl="0" msl="0.000" resource="objects/misc/ag_telephonepole_0058.obj" show_level="1 Default"/>
        </object>
        <object class="WED_ObjPlacement" id="4582" parent_id="910">
            <sources/>
            <viewers/>
            <children/>
            <hierarchy hidden="0" locked="0" name="objects/ag_telephonepole_0058.obj"/>
            <point heading="25.00" latitude="47.607680200" longitude="19.145068009"/>
            <obj_placement custom_msl="0" msl="0.000" resource="objects/misc/ag_telephonepole_0058.obj" show_level="1 Default"/>
        </object>
        <object class="WED_ObjPlacement" id="4583" parent_id="910">
            <sources/>
            <viewers/>
            <children/>
            <hierarchy hidden="0" locked="0" name="lib/airport/Common_Elements/Miscellaneous/Square_Trash_Can.obj"/>
            <point heading="202.00" latitude="47.617367772" longitude="19.143395238"/>
            <obj_placement custom_msl="0" msl="0.000" resource="lib/airport/Common_Elements/Miscellaneous/Square_Trash_Can.obj" show_level="1 Default"/>
        </object>
        <object class="WED_ObjPlacement" id="4584" parent_id="850">
            <sources/>
            <viewers/>
            <children/>
            <hierarchy hidden="0" locked="0" name="opensceneryx/objects/vehicles/commercial/trucks/blue/1.obj"/>
            <point heading="49.00" latitude="47.615214260" longitude="19.150142498"/>
            <obj_placement custom_msl="0" msl="0.000" resource="opensceneryx/objects/vehicles/commercial/trucks/blue/1.obj" show_level="1 Default"/>
        </object>
        <object class="WED_ObjPlacement" id="4585" parent_id="850">
            <sources/>
            <viewers/>
            <children/>
            <hierarchy hidden="0" locked="0" name="opensceneryx/objects/vehicles/commercial/trucks/ups/1.obj"/>
            <point heading="-129.40" latitude="47.615219686" longitude="19.149722222"/>
            <obj_placement custom_msl="0" msl="0.000" resource="opensceneryx/objects/vehicles/commercial/trucks/ups/1.obj" show_level="1 Default"/>
        </object>
        <object class="WED_SimpleBoundaryNode" id="577" parent_id="575">
            <sources/>
            <viewers/>
            <children/>
            <hierarchy hidden="0" locked="0" name="End"/>
            <point latitude="47.616882185" longitude="19.145716084"/>
        </object>
        <object class="WED_SimpleBoundaryNode" id="8769" parent_id="8750">
            <sources/>
            <viewers/>
            <children/>
            <hierarchy hidden="0" locked="0" name="Node 18"/>
            <point latitude="47.617289660" longitude="19.145276051"/>
        </object>
        <object class="WED_DrapedOrthophoto" id="8257" parent_id="8420">
            <sources/>
            <viewers/>
            <children>
                <child id="8258"/>
            </children>
            <hierarchy hidden="0" locked="0" name="szegelyjelzo_1.pol"/>
            <draped_orthophoto heading="-75.4" length="1.52" resource="Polygons/szegelyjelzo_1.pol" tex_bottom="0.000" tex_left="0.000" tex_right="1.000" tex_top="1.000" width="4.97"/>
        </object>
        <object class="WED_ObjPlacement" id="5698" parent_id="8144">
            <sources/>
            <viewers/>
            <children/>
            <hierarchy hidden="0" locked="0" name="objects/LHDK-totalgaz.obj"/>
            <point heading="0.00" latitude="47.617495814" longitude="19.143939116"/>
            <obj_placement custom_msl="0" msl="0.000" resource="Objects/misc/LHDK-totalgaz.obj" show_level="1 Default"/>
        </object>
        <object class="WED_Ring" id="8258" parent_id="8257">
            <sources/>
            <viewers/>
            <children>
                <child id="8259"/>
                <child id="8260"/>
                <child id="8261"/>
                <child id="8262"/>
            </children>
            <hierarchy hidden="0" locked="0" name="Orthophoto 1 Outer Ring"/>
        </object>
        <object class="WED_SimpleBoundaryNode" id="8770" parent_id="8750">
            <sources/>
            <viewers/>
            <children/>
            <hierarchy hidden="0" locked="0" name="Node 19"/>
            <point latitude="47.617138173" longitude="19.145482583"/>
        </object>
        <object class="WED_ObjPlacement" id="5699" parent_id="8070">
            <sources/>
            <viewers/>
            <children/>
            <hierarchy hidden="0" locked="0" name="objects/LHDK-lhdk_hangar_mal_1.obj"/>
            <point heading="0.00" latitude="47.617504831" longitude="19.144014710"/>
            <obj_placement custom_msl="0" msl="0.000" resource="objects/buildings/LHDK-lhdk_hangar_mal_1.obj" show_level="1 Default"/>
        </object>
        <object class="WED_TextureBezierNode" id="8259" parent_id="8258">
            <sources/>
            <viewers/>
            <children/>
            <hierarchy hidden="0" locked="0" name="Node 1"/>
            <point ctrl_latitude_hi="0.000000000" ctrl_latitude_lo="0.000000000" ctrl_longitude_hi="0.000000000" ctrl_longitude_lo="0.000000000" latitude="47.611636466" longitude="19.148948729" split="0"/>
            <texture_node s="0.0000" sc_hi="0.0000" sc_lo="0.0000" t="0.0000" tc_hi="0.0000" tc_lo="0.0000"/>
        </object>
        <object class="WED_SimpleBoundaryNode" id="8771" parent_id="8750">
            <sources/>
            <viewers/>
            <children/>
            <hierarchy hidden="0" locked="0" name="Node 20"/>
            <point latitude="47.617088855" longitude="19.145713038"/>
        </object>
        <object class="WED_TextureBezierNode" id="8260" parent_id="8258">
            <sources/>
            <viewers/>
            <children/>
            <hierarchy hidden="0" locked="0" name="Node 2"/>
            <point ctrl_latitude_hi="0.000000000" ctrl_latitude_lo="0.000000000" ctrl_longitude_hi="0.000000000" ctrl_longitude_lo="0.000000000" latitude="47.611593108" longitude="19.148932209" split="0"/>
            <texture_node s="1.0000" sc_hi="0.0000" sc_lo="0.0000" t="0.0000" tc_hi="0.0000" tc_lo="0.0000"/>
        </object>
        <object class="WED_SimpleBoundaryNode" id="8772" parent_id="8750">
            <sources/>
            <viewers/>
            <children/>
            <hierarchy hidden="0" locked="0" name="Node 21"/>
            <point latitude="47.617251603" longitude="19.145969098"/>
        </object>
        <object class="WED_ExclusionZone" id="581" parent_id="674">
            <sources/>
            <viewers/>
            <children>
                <child id="582"/>
                <child id="583"/>
            </children>
            <hierarchy hidden="0" locked="0" name="Exclusion Zone 3"/>
            <excluzions>
                <exclusion value="Objects"/>
                <exclusion value="Facades"/>
                <exclusion value="Forests"/>
                <exclusion value="Draped Polygons"/>
            </excluzions>
        </object>
        <object class="WED_SimpleBoundaryNode" id="8773" parent_id="8750">
            <sources/>
            <viewers/>
            <children/>
            <hierarchy hidden="0" locked="0" name="Node 22"/>
            <point latitude="47.617416816" longitude="19.145811804"/>
        </object>
        <object class="WED_ObjPlacement" id="5701" parent_id="894">
            <sources/>
            <viewers/>
            <children/>
            <hierarchy hidden="0" locked="0" name="objects/LHDK-gawron_pxm.obj"/>
            <point heading="0.00" latitude="47.617634490" longitude="19.146655327"/>
            <obj_placement custom_msl="0" msl="0.000" resource="objects/airplanes/LHDK-gawron_pxm.obj" show_level="1 Default"/>
        </object>
        <object class="WED_TextureBezierNode" id="8261" parent_id="8258">
            <sources/>
            <viewers/>
            <children/>
            <hierarchy hidden="0" locked="0" name="Node 3"/>
            <point ctrl_latitude_hi="0.000000000" ctrl_latitude_lo="0.000000000" ctrl_longitude_hi="0.000000000" ctrl_longitude_lo="0.000000000" latitude="47.611589819" longitude="19.148951248" split="0"/>
            <texture_node s="1.0000" sc_hi="0.0000" sc_lo="0.0000" t="1.0000" tc_hi="0.0000" tc_lo="0.0000"/>
        </object>
        <object class="WED_SimpleBoundaryNode" id="582" parent_id="581">
            <sources/>
            <viewers/>
            <children/>
            <hierarchy hidden="0" locked="0" name="Start"/>
            <point latitude="47.618018126" longitude="19.145792553"/>
        </object>
        <object class="WED_SimpleBoundaryNode" id="8774" parent_id="8750">
            <sources/>
            <viewers/>
            <children/>
            <hierarchy hidden="0" locked="0" name="Node 23"/>
            <point latitude="47.617744776" longitude="19.146056891"/>
        </object>
        <object class="WED_TextureBezierNode" id="8262" parent_id="8258">
            <sources/>
            <viewers/>
            <children/>
            <hierarchy hidden="0" locked="0" name="Node 4"/>
            <point ctrl_latitude_hi="0.000000000" ctrl_latitude_lo="0.000000000" ctrl_longitude_hi="0.000000000" ctrl_longitude_lo="0.000000000" latitude="47.611633032" longitude="19.148968323" split="0"/>
            <texture_node s="0.0000" sc_hi="0.0000" sc_lo="0.0000" t="1.0000" tc_hi="0.0000" tc_lo="0.0000"/>
        </object>
        <object class="WED_SimpleBoundaryNode" id="583" parent_id="581">
            <sources/>
            <viewers/>
            <children/>
            <hierarchy hidden="0" locked="0" name="End"/>
            <point latitude="47.616609983" longitude="19.144637772"/>
        </object>
        <object class="WED_SimpleBoundaryNode" id="8775" parent_id="8750">
            <sources/>
            <viewers/>
            <children/>
            <hierarchy hidden="0" locked="0" name="Node 24"/>
            <point latitude="47.618489188" longitude="19.146015227"/>
        </object>
        <object class="WED_DrapedOrthophoto" id="8263" parent_id="8420">
            <sources/>
            <viewers/>
            <children>
                <child id="8264"/>
            </children>
            <hierarchy hidden="0" locked="0" name="szegelyjelzo_1.pol"/>
            <draped_orthophoto heading="-75.4" length="1.52" resource="Polygons/szegelyjelzo_1.pol" tex_bottom="0.000" tex_left="0.000" tex_right="1.000" tex_top="1.000" width="4.97"/>
        </object>
        <object class="WED_ExclusionZone" id="584" parent_id="674">
            <sources/>
            <viewers/>
            <children>
                <child id="585"/>
                <child id="586"/>
            </children>
            <hierarchy hidden="0" locked="0" name="Exclusion Zone 4"/>
            <excluzions>
                <exclusion value="Objects"/>
                <exclusion value="Facades"/>
                <exclusion value="Forests"/>
                <exclusion value="Draped Polygons"/>
            </excluzions>
        </object>
        <object class="WED_SimpleBoundaryNode" id="8776" parent_id="8750">
            <sources/>
            <viewers/>
            <children/>
            <hierarchy hidden="0" locked="0" name="Node 25"/>
            <point latitude="47.620376060" longitude="19.143113605"/>
        </object>
        <object class="WED_ObjPlacement" id="5704" parent_id="894">
            <sources/>
            <viewers/>
            <children/>
            <hierarchy hidden="1" locked="0" name="objects/LHDK-sbl.obj"/>
            <point heading="0.00" latitude="47.617003371" longitude="19.145846695"/>
            <obj_placement custom_msl="0" msl="0.000" resource="objects/airplanes/LHDK-sbl_prop.obj" show_level="1 Default"/>
        </object>
        <object class="WED_Ring" id="8264" parent_id="8263">
            <sources/>
            <viewers/>
            <children>
                <child id="8265"/>
                <child id="8266"/>
                <child id="8267"/>
                <child id="8268"/>
            </children>
            <hierarchy hidden="0" locked="0" name="Orthophoto 1 Outer Ring"/>
        </object>
        <object class="WED_SimpleBoundaryNode" id="585" parent_id="584">
            <sources/>
            <viewers/>
            <children/>
            <hierarchy hidden="0" locked="0" name="Start"/>
            <point latitude="47.618756403" longitude="19.143684979"/>
        </object>
        <object class="WED_SimpleBoundaryNode" id="8777" parent_id="8750">
            <sources/>
            <viewers/>
            <children/>
            <hierarchy hidden="0" locked="0" name="Node 26"/>
            <point latitude="47.620281875" longitude="19.141790034"/>
        </object>
        <object class="WED_ObjPlacement" id="5705" parent_id="910">
            <sources/>
            <viewers/>
            <children/>
            <hierarchy hidden="0" locked="0" name="objects/LHDK-malevschool.obj"/>
            <point heading="0.00" latitude="47.617395162" longitude="19.143105494"/>
            <obj_placement custom_msl="0" msl="0.000" resource="Objects/misc/LHDK-malevschool_1.obj" show_level="1 Default"/>
        </object>
        <object class="WED_TextureBezierNode" id="8265" parent_id="8264">
            <sources/>
            <viewers/>
            <children/>
            <hierarchy hidden="0" locked="0" name="Node 1"/>
            <point ctrl_latitude_hi="0.000000000" ctrl_latitude_lo="0.000000000" ctrl_longitude_hi="0.000000000" ctrl_longitude_lo="0.000000000" latitude="47.610775375" longitude="19.148666479" split="0"/>
            <texture_node s="0.0000" sc_hi="0.0000" sc_lo="0.0000" t="0.0000" tc_hi="0.0000" tc_lo="0.0000"/>
        </object>
        <object class="WED_SimpleBoundaryNode" id="586" parent_id="584">
            <sources/>
            <viewers/>
            <children/>
            <hierarchy hidden="0" locked="0" name="End"/>
            <point latitude="47.617065744" longitude="19.145243982"/>
        </object>
        <object class="WED_SimpleBoundaryNode" id="8778" parent_id="8750">
            <sources/>
            <viewers/>
            <children/>
            <hierarchy hidden="0" locked="0" name="Node 27"/>
            <point latitude="47.619110713" longitude="19.142323854"/>
        </object>
        <object class="WED_TextureBezierNode" id="8266" parent_id="8264">
            <sources/>
            <viewers/>
            <children/>
            <hierarchy hidden="0" locked="0" name="Node 2"/>
            <point ctrl_latitude_hi="0.000000000" ctrl_latitude_lo="0.000000000" ctrl_longitude_hi="0.000000000" ctrl_longitude_lo="0.000000000" latitude="47.610732018" longitude="19.148649959" split="0"/>
            <texture_node s="1.0000" sc_hi="0.0000" sc_lo="0.0000" t="0.0000" tc_hi="0.0000" tc_lo="0.0000"/>
        </object>
        <object class="WED_TextureBezierNode" id="8267" parent_id="8264">
            <sources/>
            <viewers/>
            <children/>
            <hierarchy hidden="0" locked="0" name="Node 3"/>
            <point ctrl_latitude_hi="0.000000000" ctrl_latitude_lo="0.000000000" ctrl_longitude_hi="0.000000000" ctrl_longitude_lo="0.000000000" latitude="47.610728728" longitude="19.148668998" split="0"/>
            <texture_node s="1.0000" sc_hi="0.0000" sc_lo="0.0000" t="1.0000" tc_hi="0.0000" tc_lo="0.0000"/>
        </object>
        <object class="WED_SimpleBoundaryNode" id="8779" parent_id="8750">
            <sources/>
            <viewers/>
            <children/>
            <hierarchy hidden="0" locked="0" name="Node 28"/>
            <point latitude="47.618743930" longitude="19.143263587"/>
        </object>
        <object class="WED_TextureBezierNode" id="8268" parent_id="8264">
            <sources/>
            <viewers/>
            <children/>
            <hierarchy hidden="0" locked="0" name="Node 4"/>
            <point ctrl_latitude_hi="0.000000000" ctrl_latitude_lo="0.000000000" ctrl_longitude_hi="0.000000000" ctrl_longitude_lo="0.000000000" latitude="47.610771941" longitude="19.148686073" split="0"/>
            <texture_node s="0.0000" sc_hi="0.0000" sc_lo="0.0000" t="1.0000" tc_hi="0.0000" tc_lo="0.0000"/>
        </object>
        <object class="WED_SimpleBoundaryNode" id="8780" parent_id="8750">
            <sources/>
            <viewers/>
            <children/>
            <hierarchy hidden="0" locked="0" name="Node 29"/>
            <point latitude="47.618375506" longitude="19.142930721"/>
        </object>
        <object class="WED_DrapedOrthophoto" id="8269" parent_id="8420">
            <sources/>
            <viewers/>
            <children>
                <child id="8270"/>
            </children>
            <hierarchy hidden="0" locked="0" name="szegelyjelzo_1.pol"/>
            <draped_orthophoto heading="-75.4" length="1.52" resource="Polygons/szegelyjelzo_1.pol" tex_bottom="0.000" tex_left="0.000" tex_right="1.000" tex_top="1.000" width="4.97"/>
        </object>
        <object class="WED_SimpleBoundaryNode" id="8781" parent_id="8750">
            <sources/>
            <viewers/>
            <children/>
            <hierarchy hidden="0" locked="0" name="Node 30"/>
            <point latitude="47.618649411" longitude="19.142283030"/>
        </object>
        <object class="WED_Ring" id="8270" parent_id="8269">
            <sources/>
            <viewers/>
            <children>
                <child id="8271"/>
                <child id="8272"/>
                <child id="8273"/>
                <child id="8274"/>
            </children>
            <hierarchy hidden="0" locked="0" name="Orthophoto 1 Outer Ring"/>
        </object>
        <object class="WED_SimpleBoundaryNode" id="8782" parent_id="8750">
            <sources/>
            <viewers/>
            <children/>
            <hierarchy hidden="0" locked="0" name="Node 23"/>
            <point latitude="47.617939302" longitude="19.145598210"/>
        </object>
        <object class="WED_TextureBezierNode" id="8271" parent_id="8270">
            <sources/>
            <viewers/>
            <children/>
            <hierarchy hidden="0" locked="0" name="Node 1"/>
            <point ctrl_latitude_hi="0.000000000" ctrl_latitude_lo="0.000000000" ctrl_longitude_hi="0.000000000" ctrl_longitude_lo="0.000000000" latitude="47.609919353" longitude="19.148335143" split="0"/>
            <texture_node s="0.0000" sc_hi="0.0000" sc_lo="0.0000" t="0.0000" tc_hi="0.0000" tc_lo="0.0000"/>
        </object>
        <object class="WED_SimpleBoundaryNode" id="8783" parent_id="8750">
            <sources/>
            <viewers/>
            <children/>
            <hierarchy hidden="0" locked="0" name="Node 4"/>
            <point latitude="47.618079303" longitude="19.141570655"/>
        </object>
        <object class="WED_ExclusionZone" id="602" parent_id="674">
            <sources/>
            <viewers/>
            <children>
                <child id="603"/>
                <child id="604"/>
            </children>
            <hierarchy hidden="0" locked="0" name="Exclusion Zone 8"/>
            <excluzions>
                <exclusion value="Objects"/>
                <exclusion value="Facades"/>
                <exclusion value="Forests"/>
                <exclusion value="Draped Polygons"/>
            </excluzions>
        </object>
        <object class="WED_SimpleBoundaryNode" id="603" parent_id="602">
            <sources/>
            <viewers/>
            <children/>
            <hierarchy hidden="0" locked="0" name="Start"/>
            <point latitude="47.619328468" longitude="19.143960157"/>
        </object>
        <object class="WED_SimpleBoundaryNode" id="604" parent_id="602">
            <sources/>
            <viewers/>
            <children/>
            <hierarchy hidden="0" locked="0" name="End"/>
            <point latitude="47.617308013" longitude="19.141123825"/>
        </object>
        <object class="WED_ExclusionZone" id="611" parent_id="674">
            <sources/>
            <viewers/>
            <children>
                <child id="612"/>
                <child id="613"/>
            </children>
            <hierarchy hidden="0" locked="0" name="Exclusion Zone 11"/>
            <excluzions>
                <exclusion value="Objects"/>
                <exclusion value="Facades"/>
                <exclusion value="Forests"/>
                <exclusion value="Draped Polygons"/>
            </excluzions>
        </object>
        <object class="WED_SimpleBoundaryNode" id="612" parent_id="611">
            <sources/>
            <viewers/>
            <children/>
            <hierarchy hidden="0" locked="0" name="Start"/>
            <point latitude="47.619050368" longitude="19.141314507"/>
        </object>
        <object class="WED_SimpleBoundaryNode" id="643" parent_id="641">
            <sources/>
            <viewers/>
            <children/>
            <hierarchy hidden="0" locked="0" name="End"/>
            <point latitude="47.610560727" longitude="19.142879915"/>
        </object>
        <object class="WED_ForestPlacement" id="8835" parent_id="8910">
            <sources/>
            <viewers/>
            <children>
                <child id="8834"/>
            </children>
            <hierarchy hidden="0" locked="0" name="broad_tmp_dry.for"/>
            <forest_placement closed="Area" density="1.0" resource="Forests/broad_tmp_dry.for"/>
        </object>
        <object class="WED_SimpleBoundaryNode" id="8836" parent_id="8834">
            <sources/>
            <viewers/>
            <children/>
            <hierarchy hidden="0" locked="0" name="Node 1"/>
            <point latitude="47.617100723" longitude="19.145365858"/>
        </object>
        <object class="WED_SimpleBoundaryNode" id="8837" parent_id="8834">
            <sources/>
            <viewers/>
            <children/>
            <hierarchy hidden="0" locked="0" name="Node 2"/>
            <point latitude="47.616708938" longitude="19.145102910"/>
        </object>
        <object class="WED_SimpleBoundaryNode" id="8838" parent_id="8834">
            <sources/>
            <viewers/>
            <children/>
            <hierarchy hidden="0" locked="0" name="Node 3"/>
            <point latitude="47.616496970" longitude="19.145206189"/>
        </object>
        <object class="WED_ExclusionZone" id="647" parent_id="674">
            <sources/>
            <viewers/>
            <children>
                <child id="648"/>
                <child id="649"/>
            </children>
            <hierarchy hidden="0" locked="0" name="Exclusion Zone 16"/>
            <excluzions>
                <exclusion value="Objects"/>
                <exclusion value="Facades"/>
                <exclusion value="Forests"/>
                <exclusion value="Draped Polygons"/>
            </excluzions>
        </object>
        <object class="WED_SimpleBoundaryNode" id="8839" parent_id="8834">
            <sources/>
            <viewers/>
            <children/>
            <hierarchy hidden="0" locked="0" name="Node 4"/>
            <point latitude="47.616373868" longitude="19.145613890"/>
        </object>
        <object class="WED_SimpleBoundaryNode" id="648" parent_id="647">
            <sources/>
            <viewers/>
            <children/>
            <hierarchy hidden="0" locked="0" name="Start"/>
            <point latitude="47.608964334" longitude="19.142798896"/>
        </object>
        <object class="WED_SimpleBoundaryNode" id="8840" parent_id="8834">
            <sources/>
            <viewers/>
            <children/>
            <hierarchy hidden="0" locked="0" name="Node 5"/>
            <point latitude="47.616381266" longitude="19.145994322"/>
        </object>
        <object class="WED_SimpleBoundaryNode" id="649" parent_id="647">
            <sources/>
            <viewers/>
            <children/>
            <hierarchy hidden="0" locked="0" name="End"/>
            <point latitude="47.612163471" longitude="19.148351493"/>
        </object>
        <object class="WED_SimpleBoundaryNode" id="8841" parent_id="8834">
            <sources/>
            <viewers/>
            <children/>
            <hierarchy hidden="0" locked="0" name="Node 6"/>
            <point latitude="47.616253359" longitude="19.146432387"/>
        </object>
        <object class="WED_ExclusionZone" id="650" parent_id="674">
            <sources/>
            <viewers/>
            <children>
                <child id="651"/>
                <child id="652"/>
            </children>
            <hierarchy hidden="0" locked="0" name="Exclusion Zone 17"/>
            <excluzions>
                <exclusion value="Objects"/>
                <exclusion value="Facades"/>
                <exclusion value="Forests"/>
                <exclusion value="Draped Polygons"/>
            </excluzions>
        </object>
        <object class="WED_SimpleBoundaryNode" id="8842" parent_id="8834">
            <sources/>
            <viewers/>
            <children/>
            <hierarchy hidden="0" locked="0" name="Node 7"/>
            <point latitude="47.615908704" longitude="19.147093363"/>
        </object>
        <object class="WED_SimpleBoundaryNode" id="651" parent_id="650">
            <sources/>
            <viewers/>
            <children/>
            <hierarchy hidden="0" locked="0" name="Start"/>
            <point latitude="47.608242567" longitude="19.144467259"/>
        </object>
        <object class="WED_SimpleBoundaryNode" id="8843" parent_id="8834">
            <sources/>
            <viewers/>
            <children/>
            <hierarchy hidden="0" locked="0" name="Node 8"/>
            <point latitude="47.616013160" longitude="19.147357552"/>
        </object>
        <object class="WED_SimpleBoundaryNode" id="652" parent_id="650">
            <sources/>
            <viewers/>
            <children/>
            <hierarchy hidden="0" locked="0" name="End"/>
            <point latitude="47.609048812" longitude="19.146605830"/>
        </object>
        <object class="WED_SimpleBoundaryNode" id="8844" parent_id="8834">
            <sources/>
            <viewers/>
            <children/>
            <hierarchy hidden="0" locked="0" name="Node 9"/>
            <point latitude="47.615551844" longitude="19.148903739"/>
        </object>
        <object class="WED_ExclusionZone" id="653" parent_id="674">
            <sources/>
            <viewers/>
            <children>
                <child id="654"/>
                <child id="655"/>
            </children>
            <hierarchy hidden="0" locked="0" name="Exclusion Zone 18"/>
            <excluzions>
                <exclusion value="Objects"/>
                <exclusion value="Facades"/>
                <exclusion value="Forests"/>
                <exclusion value="Draped Polygons"/>
            </excluzions>
        </object>
        <object class="WED_SimpleBoundaryNode" id="8845" parent_id="8834">
            <sources/>
            <viewers/>
            <children/>
            <hierarchy hidden="0" locked="0" name="Node 10"/>
            <point latitude="47.615459374" longitude="19.148982487"/>
        </object>
        <object class="WED_SimpleBoundaryNode" id="654" parent_id="653">
            <sources/>
            <viewers/>
            <children/>
            <hierarchy hidden="0" locked="0" name="Start"/>
            <point latitude="47.607927159" longitude="19.145603375"/>
        </object>
        <object class="WED_SimpleBoundaryNode" id="8846" parent_id="8834">
            <sources/>
            <viewers/>
            <children/>
            <hierarchy hidden="0" locked="0" name="Node 11"/>
            <point latitude="47.615404577" longitude="19.149206030"/>
        </object>
        <object class="WED_SimpleBoundaryNode" id="655" parent_id="653">
            <sources/>
            <viewers/>
            <children/>
            <hierarchy hidden="0" locked="0" name="End"/>
            <point latitude="47.609110217" longitude="19.147853330"/>
        </object>
        <object class="WED_SimpleBoundaryNode" id="8847" parent_id="8834">
            <sources/>
            <viewers/>
            <children/>
            <hierarchy hidden="0" locked="0" name="Node 12"/>
            <point latitude="47.615486494" longitude="19.149321786"/>
        </object>
        <object class="WED_ExclusionZone" id="656" parent_id="674">
            <sources/>
            <viewers/>
            <children>
                <child id="657"/>
                <child id="658"/>
            </children>
            <hierarchy hidden="0" locked="0" name="Exclusion Zone 19"/>
            <excluzions>
                <exclusion value="Objects"/>
                <exclusion value="Facades"/>
                <exclusion value="Forests"/>
                <exclusion value="Draped Polygons"/>
            </excluzions>
        </object>
        <object class="WED_SimpleBoundaryNode" id="8848" parent_id="8834">
            <sources/>
            <viewers/>
            <children/>
            <hierarchy hidden="0" locked="0" name="Node 13"/>
            <point latitude="47.615757625" longitude="19.149245579"/>
        </object>
        <object class="WED_SimpleBoundaryNode" id="657" parent_id="656">
            <sources/>
            <viewers/>
            <children/>
            <hierarchy hidden="0" locked="0" name="Start"/>
            <point latitude="47.607596732" longitude="19.146483308"/>
        </object>
        <object class="WED_SimpleBoundaryNode" id="8849" parent_id="8834">
            <sources/>
            <viewers/>
            <children/>
            <hierarchy hidden="0" locked="0" name="Node 14"/>
            <point latitude="47.616386345" longitude="19.147203698"/>
        </object>
        <object class="WED_SimpleBoundaryNode" id="658" parent_id="656">
            <sources/>
            <viewers/>
            <children/>
            <hierarchy hidden="0" locked="0" name="End"/>
            <point latitude="47.609069138" longitude="19.148176343"/>
        </object>
        <object class="WED_SimpleBoundaryNode" id="8850" parent_id="8834">
            <sources/>
            <viewers/>
            <children/>
            <hierarchy hidden="0" locked="0" name="Node 15"/>
            <point latitude="47.616691805" longitude="19.146172686"/>
        </object>
        <object class="WED_ExclusionZone" id="659" parent_id="674">
            <sources/>
            <viewers/>
            <children>
                <child id="660"/>
                <child id="661"/>
            </children>
            <hierarchy hidden="0" locked="0" name="Exclusion Zone 20"/>
            <excluzions>
                <exclusion value="Objects"/>
                <exclusion value="Facades"/>
                <exclusion value="Forests"/>
                <exclusion value="Draped Polygons"/>
            </excluzions>
        </object>
        <object class="WED_SimpleBoundaryNode" id="8851" parent_id="8834">
            <sources/>
            <viewers/>
            <children/>
            <hierarchy hidden="0" locked="0" name="Node 16"/>
            <point latitude="47.617360094" longitude="19.146603775"/>
        </object>
        <object class="WED_SimpleBoundaryNode" id="660" parent_id="659">
            <sources/>
            <viewers/>
            <children/>
            <hierarchy hidden="0" locked="0" name="Start"/>
            <point latitude="47.611572845" longitude="19.148956594"/>
        </object>
        <object class="WED_SimpleBoundaryNode" id="8852" parent_id="8834">
            <sources/>
            <viewers/>
            <children/>
            <hierarchy hidden="0" locked="0" name="Node 17"/>
            <point latitude="47.617704411" longitude="19.146971659"/>
        </object>
        <object class="WED_SimpleBoundaryNode" id="661" parent_id="659">
            <sources/>
            <viewers/>
            <children/>
            <hierarchy hidden="0" locked="0" name="End"/>
            <point latitude="47.608654181" longitude="19.147948497"/>
        </object>
        <object class="WED_SimpleBoundaryNode" id="8853" parent_id="8834">
            <sources/>
            <viewers/>
            <children/>
            <hierarchy hidden="0" locked="0" name="Node 18"/>
            <point latitude="47.617468082" longitude="19.147393316"/>
        </object>
        <object class="WED_ExclusionZone" id="662" parent_id="674">
            <sources/>
            <viewers/>
            <children>
                <child id="663"/>
                <child id="664"/>
            </children>
            <hierarchy hidden="0" locked="0" name="Exclusion Zone 21"/>
            <excluzions>
                <exclusion value="Objects"/>
                <exclusion value="Facades"/>
                <exclusion value="Forests"/>
                <exclusion value="Draped Polygons"/>
            </excluzions>
        </object>
        <object class="WED_SimpleBoundaryNode" id="8854" parent_id="8834">
            <sources/>
            <viewers/>
            <children/>
            <hierarchy hidden="0" locked="0" name="Node 19"/>
            <point latitude="47.618004261" longitude="19.147909532"/>
        </object>
        <object class="WED_SimpleBoundaryNode" id="663" parent_id="662">
            <sources/>
            <viewers/>
            <children/>
            <hierarchy hidden="0" locked="0" name="Start"/>
            <point latitude="47.615019741" longitude="19.137385198"/>
        </object>
        <object class="WED_SimpleBoundaryNode" id="8855" parent_id="8834">
            <sources/>
            <viewers/>
            <children/>
            <hierarchy hidden="0" locked="0" name="Node 20"/>
            <point latitude="47.618110786" longitude="19.147661959"/>
        </object>
        <object class="WED_SimpleBoundaryNode" id="664" parent_id="662">
            <sources/>
            <viewers/>
            <children/>
            <hierarchy hidden="0" locked="0" name="End"/>
            <point latitude="47.611082929" longitude="19.142532542"/>
        </object>
        <object class="WED_SimpleBoundaryNode" id="8856" parent_id="8834">
            <sources/>
            <viewers/>
            <children/>
            <hierarchy hidden="0" locked="0" name="Node 21"/>
            <point latitude="47.617883532" longitude="19.147309036"/>
        </object>
        <object class="WED_ExclusionZone" id="665" parent_id="674">
            <sources/>
            <viewers/>
            <children>
                <child id="666"/>
                <child id="667"/>
            </children>
            <hierarchy hidden="0" locked="0" name="Exclusion Zone 22"/>
            <excluzions>
                <exclusion value="Objects"/>
                <exclusion value="Facades"/>
                <exclusion value="Forests"/>
                <exclusion value="Draped Polygons"/>
            </excluzions>
        </object>
        <object class="WED_SimpleBoundaryNode" id="8857" parent_id="8834">
            <sources/>
            <viewers/>
            <children/>
            <hierarchy hidden="0" locked="0" name="Node 22"/>
            <point latitude="47.617975854" longitude="19.147129941"/>
        </object>
        <object class="WED_SimpleBoundaryNode" id="666" parent_id="665">
            <sources/>
            <viewers/>
            <children/>
            <hierarchy hidden="0" locked="0" name="Start"/>
            <point latitude="47.616600835" longitude="19.138098321"/>
        </object>
        <object class="WED_SimpleBoundaryNode" id="8858" parent_id="8834">
            <sources/>
            <viewers/>
            <children/>
            <hierarchy hidden="0" locked="0" name="Node 23"/>
            <point latitude="47.618213761" longitude="19.146982451"/>
        </object>
        <object class="WED_SimpleBoundaryNode" id="667" parent_id="665">
            <sources/>
            <viewers/>
            <children/>
            <hierarchy hidden="0" locked="0" name="End"/>
            <point latitude="47.614583576" longitude="19.142815577"/>
        </object>
        <object class="WED_SimpleBoundaryNode" id="8859" parent_id="8834">
            <sources/>
            <viewers/>
            <children/>
            <hierarchy hidden="0" locked="0" name="Node 24"/>
            <point latitude="47.618398405" longitude="19.146403025"/>
        </object>
        <object class="WED_ExclusionZone" id="668" parent_id="674">
            <sources/>
            <viewers/>
            <children>
                <child id="669"/>
                <child id="670"/>
            </children>
            <hierarchy hidden="0" locked="0" name="Exclusion Zone 23"/>
            <excluzions>
                <exclusion value="Objects"/>
                <exclusion value="Facades"/>
                <exclusion value="Forests"/>
                <exclusion value="Draped Polygons"/>
            </excluzions>
        </object>
        <object class="WED_SimpleBoundaryNode" id="8860" parent_id="8834">
            <sources/>
            <viewers/>
            <children/>
            <hierarchy hidden="0" locked="0" name="Node 25"/>
            <point latitude="47.618057524" longitude="19.146329280"/>
        </object>
        <object class="WED_SimpleBoundaryNode" id="669" parent_id="668">
            <sources/>
            <viewers/>
            <children/>
            <hierarchy hidden="0" locked="0" name="Start"/>
            <point latitude="47.611935372" longitude="19.139726695"/>
        </object>
        <object class="WED_SimpleBoundaryNode" id="8861" parent_id="8834">
            <sources/>
            <viewers/>
            <children/>
            <hierarchy hidden="0" locked="0" name="Node 26"/>
            <point latitude="47.617904837" longitude="19.146529445"/>
        </object>
        <object class="WED_SimpleBoundaryNode" id="670" parent_id="668">
            <sources/>
            <viewers/>
            <children/>
            <hierarchy hidden="0" locked="0" name="End"/>
            <point latitude="47.610319412" longitude="19.143017281"/>
        </object>
        <object class="WED_SimpleBoundaryNode" id="8862" parent_id="8834">
            <sources/>
            <viewers/>
            <children/>
            <hierarchy hidden="0" locked="0" name="Node 27"/>
            <point latitude="47.617819617" longitude="19.146466235"/>
        </object>
        <object class="WED_ExclusionZone" id="671" parent_id="674">
            <sources/>
            <viewers/>
            <children>
                <child id="672"/>
                <child id="673"/>
            </children>
            <hierarchy hidden="0" locked="0" name="Exclusion Zone 24"/>
            <excluzions>
                <exclusion value="Objects"/>
                <exclusion value="Facades"/>
                <exclusion value="Forests"/>
                <exclusion value="Draped Polygons"/>
            </excluzions>
        </object>
        <object class="WED_SimpleBoundaryNode" id="8863" parent_id="8834">
            <sources/>
            <viewers/>
            <children/>
            <hierarchy hidden="0" locked="0" name="Node 28"/>
            <point latitude="47.617702439" longitude="19.146692738"/>
        </object>
        <object class="WED_SimpleBoundaryNode" id="672" parent_id="671">
            <sources/>
            <viewers/>
            <children/>
            <hierarchy hidden="0" locked="0" name="Start"/>
            <point latitude="47.613564628" longitude="19.142007064"/>
        </object>
        <object class="WED_SimpleBoundaryNode" id="8864" parent_id="8834">
            <sources/>
            <viewers/>
            <children/>
            <hierarchy hidden="0" locked="0" name="Node 29"/>
            <point latitude="47.617599464" longitude="19.146608458"/>
        </object>
        <object class="WED_SimpleBoundaryNode" id="673" parent_id="671">
            <sources/>
            <viewers/>
            <children/>
            <hierarchy hidden="0" locked="0" name="End"/>
            <point latitude="47.611849413" longitude="19.148318384"/>
        </object>
        <object class="WED_SimpleBoundaryNode" id="8865" parent_id="8834">
            <sources/>
            <viewers/>
            <children/>
            <hierarchy hidden="0" locked="0" name="Node 30"/>
            <point latitude="47.617656277" longitude="19.146429362"/>
        </object>
        <object class="WED_Group" id="674" parent_id="4">
            <sources/>
            <viewers/>
            <children>
                <child id="617"/>
                <child id="614"/>
                <child id="611"/>
                <child id="602"/>
                <child id="584"/>
                <child id="581"/>
                <child id="671"/>
                <child id="668"/>
                <child id="665"/>
                <child id="662"/>
                <child id="659"/>
                <child id="656"/>
                <child id="653"/>
                <child id="650"/>
                <child id="647"/>
                <child id="641"/>
                <child id="635"/>
                <child id="623"/>
                <child id="620"/>
                <child id="566"/>
                <child id="575"/>
            </children>
            <hierarchy hidden="0" locked="1" name="Exclusions"/>
        </object>
        <object class="WED_SimpleBoundaryNode" id="8866" parent_id="8834">
            <sources/>
            <viewers/>
            <children/>
            <hierarchy hidden="0" locked="0" name="Node 31"/>
            <point latitude="47.616974514" longitude="19.145860471"/>
        </object>
        <object class="WED_ObjPlacement" id="1198" parent_id="8747">
            <sources/>
            <viewers/>
            <children/>
            <hierarchy hidden="0" locked="0" name="straw_bale_stack.obj"/>
            <point heading="-65.49" latitude="47.609038006" longitude="19.143833032"/>
            <obj_placement custom_msl="0" msl="0.000" resource="handyobjects/farm/straw_bale_stack.obj" show_level="1 Default"/>
        </object>
        <object class="WED_ObjPlacement" id="1199" parent_id="8747">
            <sources/>
            <viewers/>
            <children/>
            <hierarchy hidden="0" locked="0" name="straw_bale_stack.obj"/>
            <point heading="-62.71" latitude="47.609019792" longitude="19.143882617"/>
            <obj_placement custom_msl="0" msl="0.000" resource="handyobjects/farm/straw_bale_stack.obj" show_level="1 Default"/>
        </object>
        <object class="WED_ObjPlacement" id="1200" parent_id="8747">
            <sources/>
            <viewers/>
            <children/>
            <hierarchy hidden="0" locked="0" name="straw_bale_stack.obj"/>
            <point heading="-62.71" latitude="47.609002434" longitude="19.143934110"/>
            <obj_placement custom_msl="0" msl="0.000" resource="handyobjects/farm/straw_bale_stack.obj" show_level="1 Default"/>
        </object>
        <object class="WED_ObjPlacement" id="1201" parent_id="8747">
            <sources/>
            <viewers/>
            <children/>
            <hierarchy hidden="0" locked="0" name="straw_bale_stack.obj"/>
            <point heading="-62.71" latitude="47.608984219" longitude="19.143984967"/>
            <obj_placement custom_msl="0" msl="0.000" resource="handyobjects/farm/straw_bale_stack.obj" show_level="1 Default"/>
        </object>
        <object class="WED_ObjPlacement" id="1202" parent_id="8747">
            <sources/>
            <viewers/>
            <children/>
            <hierarchy hidden="0" locked="0" name="straw_bale_stack.obj"/>
            <point heading="-62.71" latitude="47.608952740" longitude="19.144090820"/>
            <obj_placement custom_msl="0" msl="0.000" resource="handyobjects/farm/straw_bale_stack.obj" show_level="1 Default"/>
        </object>
        <object class="WED_ObjPlacement" id="1203" parent_id="8747">
            <sources/>
            <viewers/>
