<?xml version="1.0" encoding="UTF-8"?>
<doc>
    <objects>
        <object class="WED_Root" id="1" parent_id="0">
            <sources/>
            <viewers/>
            <children>
                <child id="2"/>
                <child id="3"/>
                <child id="4"/>
            </children>
            <hierarchy name="root"/>
        </object>
        <object class="WED_SimpleBoundaryNode" id="513" parent_id="511">
            <sources/>
            <viewers/>
            <children/>
            <hierarchy hidden="0" locked="0" name="e2"/>
            <point latitude="47.783096313" longitude="19.147415161"/>
        </object>
        <object class="WED_Select" id="2" parent_id="1">
            <sources/>
            <viewers/>
            <children/>
            <hierarchy name="selection"/>
            <selection>
                <sel id="543"/>
            </selection>
        </object>
        <object class="WED_KeyObjects" id="3" parent_id="1">
            <sources/>
            <viewers/>
            <children/>
            <hierarchy name="choices"/>
            <keys>
                <key id="5" name="airport"/>
            </keys>
        </object>
        <object class="WED_Group" id="4" parent_id="1">
            <sources/>
            <viewers/>
            <children>
                <child id="5"/>
                <child id="19"/>
                <child id="33"/>
                <child id="47"/>
                <child id="61"/>
                <child id="75"/>
                <child id="89"/>
                <child id="103"/>
                <child id="117"/>
                <child id="131"/>
                <child id="145"/>
                <child id="159"/>
                <child id="173"/>
                <child id="187"/>
                <child id="201"/>
                <child id="215"/>
                <child id="229"/>
                <child id="243"/>
                <child id="257"/>
                <child id="271"/>
                <child id="285"/>
                <child id="299"/>
                <child id="323"/>
                <child id="366"/>
                <child id="383"/>
                <child id="395"/>
                <child id="476"/>
                <child id="610"/>
                <child id="620"/>
                <child id="685"/>
                <child id="753"/>
                <child id="779"/>
            </children>
            <hierarchy hidden="0" locked="0" name="world"/>
        </object>
        <object class="WED_Airport" id="5" parent_id="4">
            <sources/>
            <viewers/>
            <children>
                <child id="11"/>
            </children>
            <hierarchy hidden="0" locked="1" name="Szent János Kórház"/>
            <airport always_flatten="0" drive_on_left="0" elevation="0.0" has_atc="1" icao="BP13" kind="Heliport" scenery_id="-1"/>
            <meta_data/>
        </object>
        <object class="WED_Group" id="11" parent_id="5">
            <sources/>
            <viewers/>
            <children>
                <child id="18"/>
            </children>
            <hierarchy hidden="0" locked="0" name="Runways"/>
        </object>
        <object class="WED_Helipad" id="18" parent_id="11">
            <sources/>
            <viewers/>
            <children/>
            <hierarchy hidden="0" locked="0" name="H13"/>
            <point heading="142.87" latitude="47.510368020" length="15.4" longitude="19.001103880" width="14.9"/>
            <helipad lights="Yellow" markings="Default" roughness="0.00" shoulder="Concrete" surface="Concrete"/>
        </object>
        <object class="WED_Airport" id="19" parent_id="4">
            <sources/>
            <viewers/>
            <children>
                <child id="25"/>
            </children>
            <hierarchy hidden="0" locked="1" name="Országos Baleseti Intézet"/>
            <airport always_flatten="0" drive_on_left="0" elevation="0.0" has_atc="1" icao="BP11" kind="Heliport" scenery_id="-1"/>
            <meta_data/>
        </object>
        <object class="WED_Group" id="25" parent_id="19">
            <sources/>
            <viewers/>
            <children>
                <child id="32"/>
            </children>
            <hierarchy hidden="0" locked="0" name="Runways"/>
        </object>
        <object class="WED_Helipad" id="32" parent_id="25">
            <sources/>
            <viewers/>
            <children/>
            <hierarchy hidden="0" locked="0" name="H11"/>
            <point heading="5.34" latitude="47.497287250" length="15.5" longitude="19.081601020" width="16.0"/>
            <helipad lights="Yellow" markings="Default" roughness="0.00" shoulder="Asphalt" surface="Concrete"/>
        </object>
        <object class="WED_Airport" id="33" parent_id="4">
            <sources/>
            <viewers/>
            <children>
                <child id="39"/>
            </children>
            <hierarchy hidden="0" locked="1" name="Jahn Ferenc Kórház"/>
            <airport always_flatten="0" drive_on_left="0" elevation="0.0" has_atc="1" icao="BP03" kind="Heliport" scenery_id="-1"/>
            <meta_data/>
        </object>
        <object class="WED_Group" id="39" parent_id="33">
            <sources/>
            <viewers/>
            <children>
                <child id="46"/>
            </children>
            <hierarchy hidden="0" locked="0" name="Runways"/>
        </object>
        <object class="WED_Helipad" id="46" parent_id="39">
            <sources/>
            <viewers/>
            <children/>
            <hierarchy hidden="0" locked="0" name="H03"/>
            <point heading="125.65" latitude="47.425191330" length="14.7" longitude="19.131166750" width="18.3"/>
            <helipad lights="Yellow" markings="Default" roughness="0.00" shoulder="Asphalt" surface="Concrete"/>
        </object>
        <object class="WED_Airport" id="47" parent_id="4">
            <sources/>
            <viewers/>
            <children>
                <child id="53"/>
            </children>
            <hierarchy hidden="0" locked="1" name="Merényi Gusztáv Kórház"/>
            <airport always_flatten="0" drive_on_left="0" elevation="0.0" has_atc="1" icao="BP14" kind="Heliport" scenery_id="-1"/>
            <meta_data/>
        </object>
        <object class="WED_Group" id="53" parent_id="47">
            <sources/>
            <viewers/>
            <children>
                <child id="60"/>
            </children>
            <hierarchy hidden="0" locked="0" name="Runways"/>
        </object>
        <object class="WED_Helipad" id="60" parent_id="53">
            <sources/>
            <viewers/>
            <children/>
            <hierarchy hidden="0" locked="0" name="H14"/>
            <point heading="53.75" latitude="47.465724990" length="10.1" longitude="19.099589150" width="10.5"/>
            <helipad lights="Yellow" markings="Default" roughness="0.00" shoulder="Asphalt" surface="Concrete"/>
        </object>
        <object class="WED_Airport" id="61" parent_id="4">
            <sources/>
            <viewers/>
            <children>
                <child id="67"/>
            </children>
            <hierarchy hidden="0" locked="1" name="Budapest Honvéd Kórház"/>
            <airport always_flatten="0" drive_on_left="0" elevation="139.0" has_atc="1" icao="BP15" kind="Heliport" scenery_id="-1"/>
            <meta_data/>
        </object>
        <object class="WED_Group" id="67" parent_id="61">
            <sources/>
            <viewers/>
            <children>
                <child id="74"/>
            </children>
            <hierarchy hidden="0" locked="0" name="Runways"/>
        </object>
        <object class="WED_Helipad" id="74" parent_id="67">
            <sources/>
            <viewers/>
            <children/>
            <hierarchy hidden="0" locked="0" name="H15"/>
            <point heading="132.12" latitude="47.531402686" length="22.6" longitude="19.072608449" width="23.0"/>
            <helipad lights="Yellow" markings="Default" roughness="0.00" shoulder="None" surface="Transparent"/>
        </object>
        <object class="WED_Airport" id="75" parent_id="4">
            <sources/>
            <viewers/>
            <children>
                <child id="81"/>
            </children>
            <hierarchy hidden="0" locked="1" name="Szent Imre Kórház"/>
            <airport always_flatten="0" drive_on_left="0" elevation="119.8" has_atc="1" icao="BP16" kind="Heliport" scenery_id="-1"/>
            <meta_data/>
        </object>
        <object class="WED_Group" id="81" parent_id="75">
            <sources/>
            <viewers/>
            <children>
                <child id="88"/>
            </children>
            <hierarchy hidden="0" locked="0" name="Runways"/>
        </object>
        <object class="WED_Helipad" id="88" parent_id="81">
            <sources/>
            <viewers/>
            <children/>
            <hierarchy hidden="0" locked="0" name="H7"/>
            <point heading="79.72" latitude="47.469188810" length="21.9" longitude="19.035047660" width="17.2"/>
            <helipad lights="Yellow" markings="Default" roughness="0.00" shoulder="None" surface="Transparent"/>
        </object>
        <object class="WED_Airport" id="89" parent_id="4">
            <sources/>
            <viewers/>
            <children>
                <child id="95"/>
            </children>
            <hierarchy hidden="0" locked="1" name="Ajka - Magyar Imre Kórház"/>
            <airport always_flatten="0" drive_on_left="0" elevation="0.0" has_atc="1" icao="AJKAK" kind="Heliport" scenery_id="-1"/>
            <meta_data/>
        </object>
        <object class="WED_Group" id="95" parent_id="89">
            <sources/>
            <viewers/>
            <children>
                <child id="102"/>
            </children>
            <hierarchy hidden="0" locked="0" name="Runways"/>
        </object>
        <object class="WED_Helipad" id="102" parent_id="95">
            <sources/>
            <viewers/>
            <children/>
            <hierarchy hidden="0" locked="0" name="H2"/>
            <point heading="0.00" latitude="47.111316550" length="17.4" longitude="17.564170320" width="17.3"/>
            <helipad lights="Yellow" markings="Default" roughness="0.00" shoulder="None" surface="Concrete"/>
        </object>
        <object class="WED_Airport" id="103" parent_id="4">
            <sources/>
            <viewers/>
            <children>
                <child id="109"/>
            </children>
            <hierarchy hidden="0" locked="1" name="Debrecen - Kenézy Gyula Kórház"/>
            <airport always_flatten="0" drive_on_left="0" elevation="0.0" has_atc="1" icao="DEBKG" kind="Heliport" scenery_id="-1"/>
            <meta_data/>
        </object>
        <object class="WED_Group" id="109" parent_id="103">
            <sources/>
            <viewers/>
            <children>
                <child id="116"/>
            </children>
            <hierarchy hidden="0" locked="0" name="Runways"/>
        </object>
        <object class="WED_Helipad" id="116" parent_id="109">
            <sources/>
            <viewers/>
            <children/>
            <hierarchy hidden="0" locked="0" name="H3"/>
            <point heading="1.82" latitude="47.533530710" length="23.4" longitude="21.605128880" width="20.5"/>
            <helipad lights="Yellow" markings="Default" roughness="0.00" shoulder="None" surface="Concrete"/>
        </object>
        <object class="WED_Airport" id="117" parent_id="4">
            <sources/>
            <viewers/>
            <children>
                <child id="123"/>
            </children>
            <hierarchy hidden="0" locked="1" name="Debrecen - Klinika"/>
            <airport always_flatten="0" drive_on_left="0" elevation="0.0" has_atc="1" icao="DEBKL" kind="Heliport" scenery_id="-1"/>
            <meta_data/>
        </object>
        <object class="WED_Group" id="123" parent_id="117">
            <sources/>
            <viewers/>
            <children>
                <child id="130"/>
            </children>
            <hierarchy hidden="0" locked="0" name="Runways"/>
        </object>
        <object class="WED_Helipad" id="130" parent_id="123">
            <sources/>
            <viewers/>
            <children/>
            <hierarchy hidden="0" locked="0" name="H4"/>
            <point heading="0.00" latitude="47.560859340" length="21.4" longitude="21.627241510" width="22.9"/>
            <helipad lights="Yellow" markings="Default" roughness="0.00" shoulder="None" surface="Grass"/>
        </object>
        <object class="WED_Airport" id="131" parent_id="4">
            <sources/>
            <viewers/>
            <children>
                <child id="137"/>
            </children>
            <hierarchy hidden="0" locked="1" name="Hatvan - Albert Schweitzer Kórház"/>
            <airport always_flatten="0" drive_on_left="0" elevation="0.0" has_atc="1" icao="HATVK" kind="Heliport" scenery_id="-1"/>
            <meta_data/>
        </object>
        <object class="WED_Group" id="137" parent_id="131">
            <sources/>
            <viewers/>
            <children>
                <child id="144"/>
            </children>
            <hierarchy hidden="0" locked="0" name="Runways"/>
        </object>
        <object class="WED_Helipad" id="144" parent_id="137">
            <sources/>
            <viewers/>
            <children/>
            <hierarchy hidden="0" locked="0" name="H7"/>
            <point heading="17.82" latitude="47.671893820" length="17.7" longitude="19.681339720" width="18.5"/>
            <helipad lights="Yellow" markings="Default" roughness="0.00" shoulder="None" surface="Concrete"/>
        </object>
        <object class="WED_Airport" id="145" parent_id="4">
            <sources/>
            <viewers/>
            <children>
                <child id="151"/>
            </children>
            <hierarchy hidden="0" locked="1" name="Vác Kórház"/>
            <airport always_flatten="0" drive_on_left="0" elevation="0.0" has_atc="1" icao="VACKH" kind="Heliport" scenery_id="-1"/>
            <meta_data/>
        </object>
        <object class="WED_Group" id="151" parent_id="145">
            <sources/>
            <viewers/>
            <children>
                <child id="158"/>
            </children>
            <hierarchy hidden="0" locked="0" name="Runways"/>
        </object>
        <object class="WED_Helipad" id="158" parent_id="151">
            <sources/>
            <viewers/>
            <children/>
            <hierarchy hidden="0" locked="0" name="H8"/>
            <point heading="30.82" latitude="47.782967030" length="7.6" longitude="19.147168200" width="8.9"/>
            <helipad lights="Yellow" markings="Default" roughness="0.00" shoulder="None" surface="Concrete"/>
        </object>
        <object class="WED_Airport" id="159" parent_id="4">
            <sources/>
            <viewers/>
            <children>
                <child id="165"/>
            </children>
            <hierarchy hidden="0" locked="1" name="Karcag Kórház"/>
            <airport always_flatten="0" drive_on_left="0" elevation="0.0" has_atc="1" icao="KARCAG" kind="Heliport" scenery_id="-1"/>
            <meta_data/>
        </object>
        <object class="WED_Group" id="165" parent_id="159">
            <sources/>
            <viewers/>
            <children>
                <child id="172"/>
            </children>
            <hierarchy hidden="0" locked="0" name="Runways"/>
        </object>
        <object class="WED_Helipad" id="172" parent_id="165">
            <sources/>
            <viewers/>
            <children/>
            <hierarchy hidden="0" locked="0" name="H10"/>
            <point heading="343.47" latitude="47.324822350" length="12.0" longitude="20.911911260" width="12.7"/>
            <helipad lights="Yellow" markings="Default" roughness="0.00" shoulder="None" surface="Asphalt"/>
        </object>
        <object class="WED_Airport" id="173" parent_id="4">
            <sources/>
            <viewers/>
            <children>
                <child id="179"/>
            </children>
            <hierarchy hidden="0" locked="1" name="Kiskunhalas - Semmelweis Kórház"/>
            <airport always_flatten="0" drive_on_left="0" elevation="0.0" has_atc="1" icao="KISKK" kind="Heliport" scenery_id="-1"/>
            <meta_data/>
        </object>
        <object class="WED_Group" id="179" parent_id="173">
            <sources/>
            <viewers/>
            <children>
                <child id="186"/>
            </children>
            <hierarchy hidden="0" locked="0" name="Runways"/>
        </object>
        <object class="WED_Helipad" id="186" parent_id="179">
            <sources/>
            <viewers/>
            <children/>
            <hierarchy hidden="0" locked="0" name="H12"/>
            <point heading="337.37" latitude="46.432477630" length="13.0" longitude="19.473510850" width="13.3"/>
            <helipad lights="Yellow" markings="Default" roughness="0.00" shoulder="None" surface="Concrete"/>
        </object>
        <object class="WED_Airport" id="187" parent_id="4">
            <sources/>
            <viewers/>
            <children>
                <child id="193"/>
            </children>
            <hierarchy hidden="0" locked="1" name="Szolnok - Hetényi Géza Kórház"/>
            <airport always_flatten="0" drive_on_left="0" elevation="0.0" has_atc="1" icao="SZOLH" kind="Heliport" scenery_id="-1"/>
            <meta_data/>
        </object>
        <object class="WED_Group" id="193" parent_id="187">
            <sources/>
            <viewers/>
            <children>
                <child id="200"/>
            </children>
            <hierarchy hidden="0" locked="0" name="Runways"/>
        </object>
        <object class="WED_Helipad" id="200" parent_id="193">
            <sources/>
            <viewers/>
            <children/>
            <hierarchy hidden="0" locked="0" name="H13"/>
            <point heading="319.39" latitude="47.155735340" length="19.8" longitude="20.168396770" width="19.6"/>
            <helipad lights="Yellow" markings="Default" roughness="0.00" shoulder="None" surface="Concrete"/>
        </object>
        <object class="WED_Airport" id="201" parent_id="4">
            <sources/>
            <viewers/>
            <children>
                <child id="207"/>
            </children>
            <hierarchy hidden="0" locked="1" name="Gyula - Pándy Kálmán Kórház"/>
            <airport always_flatten="0" drive_on_left="0" elevation="108.8" has_atc="1" icao="GYUPK" kind="Heliport" scenery_id="-1"/>
            <meta_data/>
        </object>
        <object class="WED_Group" id="207" parent_id="201">
            <sources/>
            <viewers/>
            <children>
                <child id="214"/>
            </children>
            <hierarchy hidden="0" locked="0" name="Runways"/>
        </object>
        <object class="WED_Helipad" id="214" parent_id="207">
            <sources/>
            <viewers/>
            <children/>
            <hierarchy hidden="0" locked="0" name="H14"/>
            <point heading="47.61" latitude="46.640248750" length="13.2" longitude="21.275823360" width="15.6"/>
            <helipad lights="Yellow" markings="Default" roughness="0.00" shoulder="None" surface="Concrete"/>
        </object>
        <object class="WED_Airport" id="215" parent_id="4">
            <sources/>
            <viewers/>
            <children>
                <child id="221"/>
            </children>
            <hierarchy hidden="0" locked="1" name="Kaposvár Kórház"/>
            <airport always_flatten="0" drive_on_left="0" elevation="175.0" has_atc="1" icao="KAPSK" kind="Heliport" scenery_id="-1"/>
            <meta_data/>
        </object>
        <object class="WED_Group" id="221" parent_id="215">
            <sources/>
            <viewers/>
            <children>
                <child id="228"/>
            </children>
            <hierarchy hidden="0" locked="0" name="Runways"/>
        </object>
        <object class="WED_Helipad" id="228" parent_id="221">
            <sources/>
            <viewers/>
            <children/>
            <hierarchy hidden="0" locked="0" name="H17"/>
            <point heading="0.22" latitude="46.360139870" length="29.5" longitude="17.798524030" width="28.3"/>
            <helipad lights="Yellow" markings="Default" roughness="0.00" shoulder="None" surface="Concrete"/>
        </object>
        <object class="WED_Airport" id="229" parent_id="4">
            <sources/>
            <viewers/>
            <children>
                <child id="235"/>
            </children>
            <hierarchy hidden="0" locked="1" name="Szombathely - Markusovszky Kórház"/>
            <airport always_flatten="0" drive_on_left="0" elevation="237.7" has_atc="1" icao="SZHMK" kind="Heliport" scenery_id="-1"/>
            <meta_data/>
        </object>
        <object class="WED_Group" id="235" parent_id="229">
            <sources/>
            <viewers/>
            <children>
                <child id="242"/>
            </children>
            <hierarchy hidden="0" locked="0" name="Runways"/>
        </object>
        <object class="WED_Helipad" id="242" parent_id="235">
            <sources/>
            <viewers/>
            <children/>
            <hierarchy hidden="0" locked="0" name="H20"/>
            <point heading="15.86" latitude="47.238423330" length="16.7" longitude="16.618295640" width="16.4"/>
            <helipad lights="Yellow" markings="Default" roughness="0.00" shoulder="None" surface="Transparent"/>
        </object>
        <object class="WED_Airport" id="243" parent_id="4">
            <sources/>
            <viewers/>
            <children>
                <child id="249"/>
            </children>
            <hierarchy hidden="0" locked="1" name="Miskolc Kórház"/>
            <airport always_flatten="0" drive_on_left="0" elevation="146.0" has_atc="1" icao="MISKH" kind="Heliport" scenery_id="-1"/>
            <meta_data/>
        </object>
        <object class="WED_Group" id="249" parent_id="243">
            <sources/>
            <viewers/>
            <children>
                <child id="256"/>
            </children>
            <hierarchy hidden="0" locked="0" name="Runways"/>
        </object>
        <object class="WED_Helipad" id="256" parent_id="249">
            <sources/>
            <viewers/>
            <children/>
            <hierarchy hidden="0" locked="0" name="H26"/>
            <point heading="-20.16" latitude="48.120940750" length="11.8" longitude="20.790303970" width="11.9"/>
            <helipad lights="Yellow" markings="Default" roughness="0.00" shoulder="None" surface="Concrete"/>
        </object>
        <object class="WED_Airport" id="257" parent_id="4">
            <sources/>
            <viewers/>
            <children>
                <child id="263"/>
            </children>
            <hierarchy hidden="0" locked="1" name="Gyõr - Petz Aladár Kórház"/>
            <airport always_flatten="0" drive_on_left="0" elevation="137.8" has_atc="1" icao="GYORK" kind="Heliport" scenery_id="-1"/>
            <meta_data/>
        </object>
        <object class="WED_Group" id="263" parent_id="257">
            <sources/>
            <viewers/>
            <children>
                <child id="270"/>
            </children>
            <hierarchy hidden="0" locked="0" name="Runways"/>
        </object>
        <object class="WED_Helipad" id="270" parent_id="263">
            <sources/>
            <viewers/>
            <children/>
            <hierarchy hidden="0" locked="0" name="H28"/>
            <point heading="-302.36" latitude="47.670871870" length="20.3" longitude="17.649164260" width="22.1"/>
            <helipad lights="Yellow" markings="Default" roughness="0.00" shoulder="None" surface="Concrete"/>
        </object>
        <object class="WED_Airport" id="271" parent_id="4">
            <sources/>
            <viewers/>
            <children>
                <child id="277"/>
            </children>
            <hierarchy hidden="0" locked="1" name="Mohácsi Kórház"/>
            <airport always_flatten="0" drive_on_left="0" elevation="102.7" has_atc="1" icao="MOHCS" kind="Heliport" scenery_id="-1"/>
            <meta_data/>
        </object>
        <object class="WED_Group" id="277" parent_id="271">
            <sources/>
            <viewers/>
            <children>
                <child id="284"/>
            </children>
            <hierarchy hidden="0" locked="0" name="Runways"/>
        </object>
        <object class="WED_Helipad" id="284" parent_id="277">
            <sources/>
            <viewers/>
            <children/>
            <hierarchy hidden="0" locked="0" name="H29"/>
            <point heading="5.11" latitude="45.997428290" length="15.6" longitude="18.682212180" width="16.2"/>
            <helipad lights="Yellow" markings="Default" roughness="0.00" shoulder="None" surface="Concrete"/>
        </object>
        <object class="WED_Airport" id="285" parent_id="4">
            <sources/>
            <viewers/>
            <children>
                <child id="291"/>
            </children>
            <hierarchy hidden="0" locked="1" name="Balassagyarmat - Dr. Kenessey Albert Kórház"/>
            <airport always_flatten="0" drive_on_left="0" elevation="159.7" has_atc="1" icao="BGYAR" kind="Heliport" scenery_id="-1"/>
            <meta_data/>
        </object>
        <object class="WED_Group" id="291" parent_id="285">
            <sources/>
            <viewers/>
            <children>
                <child id="298"/>
            </children>
            <hierarchy hidden="0" locked="0" name="Runways"/>
        </object>
        <object class="WED_Helipad" id="298" parent_id="291">
            <sources/>
            <viewers/>
            <children/>
            <hierarchy hidden="0" locked="0" name="H32"/>
            <point heading="362.77" latitude="48.079690960" length="28.7" longitude="19.308498470" width="38.9"/>
            <helipad lights="Yellow" markings="Default" roughness="0.00" shoulder="None" surface="Concrete"/>
        </object>
        <object class="WED_Group" id="299" parent_id="4">
            <sources/>
            <viewers/>
            <children>
                <child id="301"/>
                <child id="303"/>
            </children>
            <hierarchy hidden="0" locked="1" name="D:\games\X-Plane 11\Custom Scenery\HungaryVFR-Medical-Helipads\Earth nav data\+40+010\+45+018.dsf"/>
        </object>
        <object class="WED_ObjPlacement" id="300" parent_id="301">
            <sources/>
            <viewers/>
            <children/>
            <hierarchy hidden="0" locked="0" name="lib/g10/global_objects/rooftop_helipad_1.obj"/>
            <point heading="100.60" latitude="45.997412165" longitude="18.682244697"/>
            <obj_placement custom_msl="0" msl="0.000" resource="lib/g10/global_objects/rooftop_helipad_1.obj" show_level="1 Default"/>
        </object>
        <object class="WED_Group" id="301" parent_id="299">
            <sources/>
            <viewers/>
            <children>
                <child id="300"/>
            </children>
            <hierarchy hidden="0" locked="0" name="Objects"/>
        </object>
        <object class="WED_FacadePlacement" id="302" parent_id="303">
            <sources/>
            <viewers/>
            <children>
                <child id="304"/>
            </children>
            <hierarchy hidden="0" locked="0" name="facades/no/industrial/ind3.fac"/>
            <facade_placement height="15.0" pick_walls="0" resource="facades/no/industrial/ind3.fac" show_level="1 Default"/>
        </object>
        <object class="WED_Group" id="303" parent_id="299">
            <sources/>
            <viewers/>
            <children>
                <child id="302"/>
            </children>
            <hierarchy hidden="0" locked="0" name="Facades"/>
        </object>
        <object class="WED_FacadeRing" id="304" parent_id="302">
            <sources/>
            <viewers/>
            <children>
                <child id="305"/>
                <child id="306"/>
                <child id="307"/>
                <child id="308"/>
                <child id="309"/>
                <child id="310"/>
                <child id="311"/>
                <child id="312"/>
                <child id="313"/>
                <child id="314"/>
                <child id="315"/>
                <child id="316"/>
                <child id="317"/>
                <child id="318"/>
                <child id="319"/>
                <child id="320"/>
                <child id="321"/>
                <child id="322"/>
            </children>
            <hierarchy hidden="0" locked="0" name="Ring"/>
        </object>
        <object class="WED_FacadeNode" id="305" parent_id="304">
            <sources/>
            <viewers/>
            <children/>
            <hierarchy hidden="0" locked="0" name="Point"/>
            <point ctrl_latitude_hi="0.000000000" ctrl_latitude_lo="0.000000000" ctrl_longitude_hi="0.000000000" ctrl_longitude_lo="0.000000000" latitude="45.997032597" longitude="18.681615263" split="0"/>
            <facade_node wall_type="Wall 1"/>
        </object>
        <object class="WED_FacadeNode" id="306" parent_id="304">
            <sources/>
            <viewers/>
            <children/>
            <hierarchy hidden="0" locked="0" name="Point"/>
            <point ctrl_latitude_hi="0.000000000" ctrl_latitude_lo="0.000000000" ctrl_longitude_hi="0.000000000" ctrl_longitude_lo="0.000000000" latitude="45.997019245" longitude="18.681950484" split="0"/>
            <facade_node wall_type="Wall 1"/>
        </object>
        <object class="WED_FacadeNode" id="307" parent_id="304">
            <sources/>
            <viewers/>
            <children/>
            <hierarchy hidden="0" locked="0" name="Point"/>
            <point ctrl_latitude_hi="0.000000000" ctrl_latitude_lo="0.000000000" ctrl_longitude_hi="0.000000000" ctrl_longitude_lo="0.000000000" latitude="45.997397860" longitude="18.681987678" split="0"/>
            <facade_node wall_type="Wall 1"/>
        </object>
        <object class="WED_FacadeNode" id="308" parent_id="304">
            <sources/>
            <viewers/>
            <children/>
            <hierarchy hidden="0" locked="0" name="Point"/>
            <point ctrl_latitude_hi="0.000000000" ctrl_latitude_lo="0.000000000" ctrl_longitude_hi="0.000000000" ctrl_longitude_lo="0.000000000" latitude="45.997394999" longitude="18.682071603" split="0"/>
            <facade_node wall_type="Wall 1"/>
        </object>
        <object class="WED_FacadeNode" id="309" parent_id="304">
            <sources/>
            <viewers/>
            <children/>
            <hierarchy hidden="0" locked="0" name="Point"/>
            <point ctrl_latitude_hi="0.000000000" ctrl_latitude_lo="0.000000000" ctrl_longitude_hi="0.000000000" ctrl_longitude_lo="0.000000000" latitude="45.997319181" longitude="18.682049668" split="0"/>
            <facade_node wall_type="Wall 1"/>
        </object>
        <object class="WED_FacadeNode" id="310" parent_id="304">
            <sources/>
            <viewers/>
            <children/>
            <hierarchy hidden="0" locked="0" name="Point"/>
            <point ctrl_latitude_hi="0.000000000" ctrl_latitude_lo="0.000000000" ctrl_longitude_hi="0.000000000" ctrl_longitude_lo="0.000000000" latitude="45.997275311" longitude="18.682372492" split="0"/>
            <facade_node wall_type="Wall 1"/>
        </object>
        <object class="WED_FacadeNode" id="311" parent_id="304">
            <sources/>
            <viewers/>
            <children/>
            <hierarchy hidden="0" locked="0" name="Point"/>
            <point ctrl_latitude_hi="0.000000000" ctrl_latitude_lo="0.000000000" ctrl_longitude_hi="0.000000000" ctrl_longitude_lo="0.000000000" latitude="45.997362097" longitude="18.682396334" split="0"/>
            <facade_node wall_type="Wall 1"/>
        </object>
        <object class="WED_FacadeNode" id="312" parent_id="304">
            <sources/>
            <viewers/>
            <children/>
            <hierarchy hidden="0" locked="0" name="Point"/>
            <point ctrl_latitude_hi="0.000000000" ctrl_latitude_lo="0.000000000" ctrl_longitude_hi="0.000000000" ctrl_longitude_lo="0.000000000" latitude="45.997374018" longitude="18.682399195" split="0"/>
            <facade_node wall_type="Wall 1"/>
        </object>
        <object class="WED_FacadeNode" id="313" parent_id="304">
            <sources/>
            <viewers/>
            <children/>
            <hierarchy hidden="0" locked="0" name="Point"/>
            <point ctrl_latitude_hi="0.000000000" ctrl_latitude_lo="0.000000000" ctrl_longitude_hi="0.000000000" ctrl_longitude_lo="0.000000000" latitude="45.997504673" longitude="18.682423514" split="0"/>
            <facade_node wall_type="Wall 1"/>
        </object>
        <object class="WED_FacadeNode" id="314" parent_id="304">
            <sources/>
            <viewers/>
            <children/>
            <hierarchy hidden="0" locked="0" name="Point"/>
            <point ctrl_latitude_hi="0.000000000" ctrl_latitude_lo="0.000000000" ctrl_longitude_hi="0.000000000" ctrl_longitude_lo="0.000000000" latitude="45.997517548" longitude="18.682344358" split="0"/>
            <facade_node wall_type="Wall 1"/>
        </object>
        <object class="WED_FacadeNode" id="315" parent_id="304">
            <sources/>
            <viewers/>
            <children/>
            <hierarchy hidden="0" locked="0" name="Point"/>
            <point ctrl_latitude_hi="0.000000000" ctrl_latitude_lo="0.000000000" ctrl_longitude_hi="0.000000000" ctrl_longitude_lo="0.000000000" latitude="45.997543297" longitude="18.682109274" split="0"/>
            <facade_node wall_type="Wall 1"/>
        </object>
        <object class="WED_FacadeNode" id="316" parent_id="304">
            <sources/>
            <viewers/>
            <children/>
            <hierarchy hidden="0" locked="0" name="Point"/>
            <point ctrl_latitude_hi="0.000000000" ctrl_latitude_lo="0.000000000" ctrl_longitude_hi="0.000000000" ctrl_longitude_lo="0.000000000" latitude="45.997455081" longitude="18.682085908" split="0"/>
            <facade_node wall_type="Wall 1"/>
        </object>
        <object class="WED_FacadeNode" id="317" parent_id="304">
            <sources/>
            <viewers/>
            <children/>
            <hierarchy hidden="0" locked="0" name="Point"/>
            <point ctrl_latitude_hi="0.000000000" ctrl_latitude_lo="0.000000000" ctrl_longitude_hi="0.000000000" ctrl_longitude_lo="0.000000000" latitude="45.997462234" longitude="18.681981479" split="0"/>
            <facade_node wall_type="Wall 1"/>
        </object>
        <object class="WED_FacadeNode" id="318" parent_id="304">
            <sources/>
            <viewers/>
            <children/>
            <hierarchy hidden="0" locked="0" name="Point"/>
            <point ctrl_latitude_hi="0.000000000" ctrl_latitude_lo="0.000000000" ctrl_longitude_hi="0.000000000" ctrl_longitude_lo="0.000000000" latitude="45.997610533" longitude="18.682039178" split="0"/>
            <facade_node wall_type="Wall 1"/>
        </object>
        <object class="WED_FacadeNode" id="319" parent_id="304">
            <sources/>
            <viewers/>
            <children/>
            <hierarchy hidden="0" locked="0" name="Point"/>
            <point ctrl_latitude_hi="0.000000000" ctrl_latitude_lo="0.000000000" ctrl_longitude_hi="0.000000000" ctrl_longitude_lo="0.000000000" latitude="45.997601472" longitude="18.682189860" split="0"/>
            <facade_node wall_type="Wall 1"/>
        </object>
        <object class="WED_FacadeNode" id="320" parent_id="304">
            <sources/>
            <viewers/>
            <children/>
            <hierarchy hidden="0" locked="0" name="Point"/>
            <point ctrl_latitude_hi="0.000000000" ctrl_latitude_lo="0.000000000" ctrl_longitude_hi="0.000000000" ctrl_longitude_lo="0.000000000" latitude="45.997603380" longitude="18.682384413" split="0"/>
            <facade_node wall_type="Wall 1"/>
        </object>
        <object class="WED_FacadeNode" id="321" parent_id="304">
            <sources/>
            <viewers/>
            <children/>
            <hierarchy hidden="0" locked="0" name="Point"/>
            <point ctrl_latitude_hi="0.000000000" ctrl_latitude_lo="0.000000000" ctrl_longitude_hi="0.000000000" ctrl_longitude_lo="0.000000000" latitude="45.997824159" longitude="18.682404440" split="0"/>
            <facade_node wall_type="Wall 1"/>
        </object>
        <object class="WED_FacadeNode" id="322" parent_id="304">
            <sources/>
            <viewers/>
            <children/>
            <hierarchy hidden="0" locked="0" name="Point"/>
            <point ctrl_latitude_hi="0.000000000" ctrl_latitude_lo="0.000000000" ctrl_longitude_hi="0.000000000" ctrl_longitude_lo="0.000000000" latitude="45.997886149" longitude="18.681800278" split="0"/>
            <facade_node wall_type="Wall 1"/>
        </object>
        <object class="WED_Group" id="323" parent_id="4">
            <sources/>
            <viewers/>
            <children>
                <child id="325"/>
                <child id="327"/>
            </children>
            <hierarchy hidden="0" locked="1" name="D:\games\X-Plane 11\Custom Scenery\HungaryVFR-Medical-Helipads\Earth nav data\+40+010\+46+017.dsf"/>
        </object>
        <object class="WED_ObjPlacement" id="324" parent_id="325">
            <sources/>
            <viewers/>
            <children/>
            <hierarchy hidden="0" locked="0" name="lib/g10/global_objects/rooftop_helipad_2.obj"/>
            <point heading="179.50" latitude="46.360140574" longitude="17.798522259"/>
            <obj_placement custom_msl="0" msl="0.000" resource="lib/g10/global_objects/rooftop_helipad_2.obj" show_level="1 Default"/>
        </object>
        <object class="WED_Group" id="325" parent_id="323">
            <sources/>
            <viewers/>
            <children>
                <child id="324"/>
            </children>
            <hierarchy hidden="0" locked="0" name="Objects"/>
        </object>
        <object class="WED_FacadePlacement" id="326" parent_id="327">
            <sources/>
            <viewers/>
            <children>
                <child id="328"/>
            </children>
            <hierarchy hidden="0" locked="0" name="facades/no/industrial/ind3.fac"/>
            <facade_placement height="25.0" pick_walls="1" resource="facades/no/industrial/ind3.fac" show_level="1 Default"/>
        </object>
        <object class="WED_Group" id="327" parent_id="323">
            <sources/>
            <viewers/>
            <children>
                <child id="326"/>
            </children>
            <hierarchy hidden="0" locked="0" name="Facades"/>
        </object>
        <object class="WED_FacadeRing" id="328" parent_id="326">
            <sources/>
            <viewers/>
            <children>
                <child id="329"/>
                <child id="330"/>
                <child id="331"/>
                <child id="332"/>
                <child id="333"/>
                <child id="334"/>
                <child id="335"/>
                <child id="336"/>
                <child id="337"/>
                <child id="338"/>
                <child id="339"/>
                <child id="340"/>
                <child id="341"/>
                <child id="342"/>
                <child id="343"/>
                <child id="344"/>
                <child id="345"/>
                <child id="346"/>
                <child id="347"/>
                <child id="348"/>
                <child id="349"/>
                <child id="350"/>
                <child id="351"/>
                <child id="352"/>
                <child id="353"/>
                <child id="354"/>
                <child id="355"/>
                <child id="356"/>
                <child id="357"/>
                <child id="358"/>
                <child id="359"/>
                <child id="360"/>
                <child id="361"/>
                <child id="362"/>
                <child id="363"/>
                <child id="364"/>
                <child id="365"/>
            </children>
            <hierarchy hidden="0" locked="0" name="Ring"/>
        </object>
        <object class="WED_FacadeNode" id="329" parent_id="328">
            <sources/>
            <viewers/>
            <children/>
            <hierarchy hidden="0" locked="0" name="Point"/>
            <point ctrl_latitude_hi="0.000000000" ctrl_latitude_lo="0.000000000" ctrl_longitude_hi="0.000000000" ctrl_longitude_lo="0.000000000" latitude="46.359945544" longitude="17.797580491" split="0"/>
            <facade_node wall_type="Wall 1"/>
        </object>
        <object class="WED_FacadeNode" id="330" parent_id="328">
            <sources/>
            <viewers/>
            <children/>
            <hierarchy hidden="0" locked="0" name="Point"/>
            <point ctrl_latitude_hi="0.000000000" ctrl_latitude_lo="0.000000000" ctrl_longitude_hi="0.000000000" ctrl_longitude_lo="0.000000000" latitude="46.359918841" longitude="17.798030632" split="0"/>
            <facade_node wall_type="Wall 1"/>
        </object>
        <object class="WED_FacadeNode" id="331" parent_id="328">
            <sources/>
            <viewers/>
            <children/>
            <hierarchy hidden="0" locked="0" name="Point"/>
            <point ctrl_latitude_hi="0.000000000" ctrl_latitude_lo="0.000000000" ctrl_longitude_hi="0.000000000" ctrl_longitude_lo="0.000000000" latitude="46.360018025" longitude="17.798033970" split="0"/>
            <facade_node wall_type="Wall 1"/>
        </object>
        <object class="WED_FacadeNode" id="332" parent_id="328">
            <sources/>
            <viewers/>
            <children/>
            <hierarchy hidden="0" locked="0" name="Point"/>
            <point ctrl_latitude_hi="0.000000000" ctrl_latitude_lo="0.000000000" ctrl_longitude_hi="0.000000000" ctrl_longitude_lo="0.000000000" latitude="46.359974155" longitude="17.798154135" split="0"/>
            <facade_node wall_type="Wall 1"/>
        </object>
        <object class="WED_FacadeNode" id="333" parent_id="328">
            <sources/>
            <viewers/>
            <children/>
            <hierarchy hidden="0" locked="0" name="Point"/>
            <point ctrl_latitude_hi="0.000000000" ctrl_latitude_lo="0.000000000" ctrl_longitude_hi="0.000000000" ctrl_longitude_lo="0.000000000" latitude="46.359752422" longitude="17.798168441" split="0"/>
            <facade_node wall_type="Wall 1"/>
        </object>
        <object class="WED_FacadeNode" id="334" parent_id="328">
            <sources/>
            <viewers/>
            <children/>
            <hierarchy hidden="0" locked="0" name="Point"/>
            <point ctrl_latitude_hi="0.000000000" ctrl_latitude_lo="0.000000000" ctrl_longitude_hi="0.000000000" ctrl_longitude_lo="0.000000000" latitude="46.359750992" longitude="17.798077363" split="0"/>
            <facade_node wall_type="Wall 1"/>
        </object>
        <object class="WED_FacadeNode" id="335" parent_id="328">
            <sources/>
            <viewers/>
            <children/>
            <hierarchy hidden="0" locked="0" name="Point"/>
            <point ctrl_latitude_hi="0.000000000" ctrl_latitude_lo="0.000000000" ctrl_longitude_hi="0.000000000" ctrl_longitude_lo="0.000000000" latitude="46.359612230" longitude="17.798089761" split="0"/>
            <facade_node wall_type="Wall 1"/>
        </object>
        <object class="WED_FacadeNode" id="336" parent_id="328">
            <sources/>
            <viewers/>
            <children/>
            <hierarchy hidden="0" locked="0" name="Point"/>
            <point ctrl_latitude_hi="0.000000000" ctrl_latitude_lo="0.000000000" ctrl_longitude_hi="0.000000000" ctrl_longitude_lo="0.000000000" latitude="46.359617952" longitude="17.798050660" split="0"/>
            <facade_node wall_type="Wall 1"/>
        </object>
        <object class="WED_FacadeNode" id="337" parent_id="328">
            <sources/>
            <viewers/>
            <children/>
            <hierarchy hidden="0" locked="0" name="Point"/>
            <point ctrl_latitude_hi="0.000000000" ctrl_latitude_lo="0.000000000" ctrl_longitude_hi="0.000000000" ctrl_longitude_lo="0.000000000" latitude="46.359455348" longitude="17.798038262" split="0"/>
            <facade_node wall_type="Wall 1"/>
        </object>
        <object class="WED_FacadeNode" id="338" parent_id="328">
            <sources/>
            <viewers/>
            <children/>
            <hierarchy hidden="0" locked="0" name="Point"/>
            <point ctrl_latitude_hi="0.000000000" ctrl_latitude_lo="0.000000000" ctrl_longitude_hi="0.000000000" ctrl_longitude_lo="0.000000000" latitude="46.359459640" longitude="17.798321984" split="0"/>
            <facade_node wall_type="Wall 1"/>
        </object>
        <object class="WED_FacadeNode" id="339" parent_id="328">
            <sources/>
            <viewers/>
            <children/>
            <hierarchy hidden="0" locked="0" name="Point"/>
            <point ctrl_latitude_hi="0.000000000" ctrl_latitude_lo="0.000000000" ctrl_longitude_hi="0.000000000" ctrl_longitude_lo="0.000000000" latitude="46.359577897" longitude="17.798342489" split="0"/>
            <facade_node wall_type="Wall 1"/>
        </object>
        <object class="WED_FacadeNode" id="340" parent_id="328">
            <sources/>
            <viewers/>
            <children/>
            <hierarchy hidden="0" locked="0" name="Point"/>
            <point ctrl_latitude_hi="0.000000000" ctrl_latitude_lo="0.000000000" ctrl_longitude_hi="0.000000000" ctrl_longitude_lo="0.000000000" latitude="46.359567884" longitude="17.799038205" split="0"/>
            <facade_node wall_type="Wall 1"/>
        </object>
        <object class="WED_FacadeNode" id="341" parent_id="328">
            <sources/>
            <viewers/>
            <children/>
            <hierarchy hidden="0" locked="0" name="Point"/>
            <point ctrl_latitude_hi="0.000000000" ctrl_latitude_lo="0.000000000" ctrl_longitude_hi="0.000000000" ctrl_longitude_lo="0.000000000" latitude="46.359425307" longitude="17.799061093" split="0"/>
            <facade_node wall_type="Wall 1"/>
        </object>
        <object class="WED_FacadeNode" id="342" parent_id="328">
            <sources/>
            <viewers/>
            <children/>
            <hierarchy hidden="0" locked="0" name="Point"/>
            <point ctrl_latitude_hi="0.000000000" ctrl_latitude_lo="0.000000000" ctrl_longitude_hi="0.000000000" ctrl_longitude_lo="0.000000000" latitude="46.359431029" longitude="17.799290932" split="0"/>
            <facade_node wall_type="Wall 1"/>
        </object>
        <object class="WED_FacadeNode" id="343" parent_id="328">
            <sources/>
            <viewers/>
            <children/>
            <hierarchy hidden="0" locked="0" name="Point"/>
            <point ctrl_latitude_hi="0.000000000" ctrl_latitude_lo="0.000000000" ctrl_longitude_hi="0.000000000" ctrl_longitude_lo="0.000000000" latitude="46.359798199" longitude="17.799305715" split="0"/>
            <facade_node wall_type="Wall 1"/>
        </object>
        <object class="WED_FacadeNode" id="344" parent_id="328">
            <sources/>
            <viewers/>
            <children/>
            <hierarchy hidden="0" locked="0" name="Point"/>
            <point ctrl_latitude_hi="0.000000000" ctrl_latitude_lo="0.000000000" ctrl_longitude_hi="0.000000000" ctrl_longitude_lo="0.000000000" latitude="46.359792477" longitude="17.799485485" split="0"/>
            <facade_node wall_type="Wall 1"/>
        </object>
        <object class="WED_FacadeNode" id="345" parent_id="328">
            <sources/>
            <viewers/>
            <children/>
            <hierarchy hidden="0" locked="0" name="Point"/>
            <point ctrl_latitude_hi="0.000000000" ctrl_latitude_lo="0.000000000" ctrl_longitude_hi="0.000000000" ctrl_longitude_lo="0.000000000" latitude="46.359426738" longitude="17.799464981" split="0"/>
            <facade_node wall_type="Wall 1"/>
        </object>
        <object class="WED_FacadeNode" id="346" parent_id="328">
            <sources/>
            <viewers/>
            <children/>
            <hierarchy hidden="0" locked="0" name="Point"/>
            <point ctrl_latitude_hi="0.000000000" ctrl_latitude_lo="0.000000000" ctrl_longitude_hi="0.000000000" ctrl_longitude_lo="0.000000000" latitude="46.359419585" longitude="17.799699111" split="0"/>
            <facade_node wall_type="Wall 1"/>
        </object>
        <object class="WED_FacadeNode" id="347" parent_id="328">
            <sources/>
            <viewers/>
            <children/>
            <hierarchy hidden="0" locked="0" name="Point"/>
            <point ctrl_latitude_hi="0.000000000" ctrl_latitude_lo="0.000000000" ctrl_longitude_hi="0.000000000" ctrl_longitude_lo="0.000000000" latitude="46.359862573" longitude="17.799722000" split="0"/>
            <facade_node wall_type="Wall 1"/>
        </object>
        <object class="WED_FacadeNode" id="348" parent_id="328">
            <sources/>
            <viewers/>
            <children/>
            <hierarchy hidden="0" locked="0" name="Point"/>
            <point ctrl_latitude_hi="0.000000000" ctrl_latitude_lo="0.000000000" ctrl_longitude_hi="0.000000000" ctrl_longitude_lo="0.000000000" latitude="46.359874018" longitude="17.799895571" split="0"/>
            <facade_node wall_type="Wall 1"/>
        </object>
        <object class="WED_FacadeNode" id="349" parent_id="328">
            <sources/>
            <viewers/>
            <children/>
            <hierarchy hidden="0" locked="0" name="Point"/>
            <point ctrl_latitude_hi="0.000000000" ctrl_latitude_lo="0.000000000" ctrl_longitude_hi="0.000000000" ctrl_longitude_lo="0.000000000" latitude="46.359995613" longitude="17.799864576" split="0"/>
            <facade_node wall_type="Wall 1"/>
        </object>
        <object class="WED_FacadeNode" id="350" parent_id="328">
            <sources/>
            <viewers/>
            <children/>
            <hierarchy hidden="0" locked="0" name="Point"/>
            <point ctrl_latitude_hi="0.000000000" ctrl_latitude_lo="0.000000000" ctrl_longitude_hi="0.000000000" ctrl_longitude_lo="0.000000000" latitude="46.359994182" longitude="17.799847887" split="0"/>
            <facade_node wall_type="Wall 1"/>
        </object>
        <object class="WED_FacadeNode" id="351" parent_id="328">
            <sources/>
            <viewers/>
            <children/>
            <hierarchy hidden="0" locked="0" name="Point"/>
            <point ctrl_latitude_hi="0.000000000" ctrl_latitude_lo="0.000000000" ctrl_longitude_hi="0.000000000" ctrl_longitude_lo="0.000000000" latitude="46.359946975" longitude="17.799788281" split="0"/>
            <facade_node wall_type="Wall 1"/>
        </object>
        <object class="WED_FacadeNode" id="352" parent_id="328">
            <sources/>
            <viewers/>
            <children/>
            <hierarchy hidden="0" locked="0" name="Point"/>
            <point ctrl_latitude_hi="0.000000000" ctrl_latitude_lo="0.000000000" ctrl_longitude_hi="0.000000000" ctrl_longitude_lo="0.000000000" latitude="46.359958419" longitude="17.799732013" split="0"/>
            <facade_node wall_type="Wall 1"/>
        </object>
        <object class="WED_FacadeNode" id="353" parent_id="328">
            <sources/>
            <viewers/>
            <children/>
            <hierarchy hidden="0" locked="0" name="Point"/>
            <point ctrl_latitude_hi="0.000000000" ctrl_latitude_lo="0.000000000" ctrl_longitude_hi="0.000000000" ctrl_longitude_lo="0.000000000" latitude="46.359999905" longitude="17.799643320" split="0"/>
            <facade_node wall_type="Wall 1"/>
        </object>
        <object class="WED_FacadeNode" id="354" parent_id="328">
            <sources/>
            <viewers/>
            <children/>
            <hierarchy hidden="0" locked="0" name="Point"/>
            <point ctrl_latitude_hi="0.000000000" ctrl_latitude_lo="0.000000000" ctrl_longitude_hi="0.000000000" ctrl_longitude_lo="0.000000000" latitude="46.359978447" longitude="17.799520771" split="0"/>
            <facade_node wall_type="Wall 1"/>
        </object>
        <object class="WED_FacadeNode" id="355" parent_id="328">
            <sources/>
            <viewers/>
            <children/>
            <hierarchy hidden="0" locked="0" name="Point"/>
            <point ctrl_latitude_hi="0.000000000" ctrl_latitude_lo="0.000000000" ctrl_longitude_hi="0.000000000" ctrl_longitude_lo="0.000000000" latitude="46.360308423" longitude="17.799529355" split="0"/>
            <facade_node wall_type="Wall 1"/>
        </object>
        <object class="WED_FacadeNode" id="356" parent_id="328">
            <sources/>
            <viewers/>
            <children/>
            <hierarchy hidden="0" locked="0" name="Point"/>
            <point ctrl_latitude_hi="0.000000000" ctrl_latitude_lo="0.000000000" ctrl_longitude_hi="0.000000000" ctrl_longitude_lo="0.000000000" latitude="46.360321298" longitude="17.799266136" split="0"/>
            <facade_node wall_type="Wall 1"/>
        </object>
        <object class="WED_FacadeNode" id="357" parent_id="328">
            <sources/>
            <viewers/>
            <children/>
            <hierarchy hidden="0" locked="0" name="Point"/>
            <point ctrl_latitude_hi="0.000000000" ctrl_latitude_lo="0.000000000" ctrl_longitude_hi="0.000000000" ctrl_longitude_lo="0.000000000" latitude="46.359971294" longitude="17.799278534" split="0"/>
            <facade_node wall_type="Wall 1"/>
        </object>
        <object class="WED_FacadeNode" id="358" parent_id="328">
            <sources/>
            <viewers/>
            <children/>
            <hierarchy hidden="0" locked="0" name="Point"/>
            <point ctrl_latitude_hi="0.000000000" ctrl_latitude_lo="0.000000000" ctrl_longitude_hi="0.000000000" ctrl_longitude_lo="0.000000000" latitude="46.359982738" longitude="17.799141680" split="0"/>
            <facade_node wall_type="Wall 1"/>
        </object>
        <object class="WED_FacadeNode" id="359" parent_id="328">
            <sources/>
            <viewers/>
            <children/>
            <hierarchy hidden="0" locked="0" name="Point"/>
            <point ctrl_latitude_hi="0.000000000" ctrl_latitude_lo="0.000000000" ctrl_longitude_hi="0.000000000" ctrl_longitude_lo="0.000000000" latitude="46.360286965" longitude="17.799113069" split="0"/>
            <facade_node wall_type="Wall 1"/>
        </object>
        <object class="WED_FacadeNode" id="360" parent_id="328">
            <sources/>
            <viewers/>
            <children/>
            <hierarchy hidden="0" locked="0" name="Point"/>
            <point ctrl_latitude_hi="0.000000000" ctrl_latitude_lo="0.000000000" ctrl_longitude_hi="0.000000000" ctrl_longitude_lo="0.000000000" latitude="46.360289826" longitude="17.798901827" split="0"/>
            <facade_node wall_type="Wall 1"/>
        </object>
        <object class="WED_FacadeNode" id="361" parent_id="328">
            <sources/>
            <viewers/>
            <children/>
            <hierarchy hidden="0" locked="0" name="Point"/>
            <point ctrl_latitude_hi="0.000000000" ctrl_latitude_lo="0.000000000" ctrl_longitude_hi="0.000000000" ctrl_longitude_lo="0.000000000" latitude="46.359989891" longitude="17.798872740" split="0"/>
            <facade_node wall_type="Wall 1"/>
        </object>
        <object class="WED_FacadeNode" id="362" parent_id="328">
            <sources/>
            <viewers/>
            <children/>
            <hierarchy hidden="0" locked="0" name="Point"/>
            <point ctrl_latitude_hi="0.000000000" ctrl_latitude_lo="0.000000000" ctrl_longitude_hi="0.000000000" ctrl_longitude_lo="0.000000000" latitude="46.359988937" longitude="17.798736839" split="0"/>
            <facade_node wall_type="Wall 1"/>
        </object>
        <object class="WED_FacadeNode" id="363" parent_id="328">
            <sources/>
            <viewers/>
            <children/>
            <hierarchy hidden="0" locked="0" name="Point"/>
            <point ctrl_latitude_hi="0.000000000" ctrl_latitude_lo="0.000000000" ctrl_longitude_hi="0.000000000" ctrl_longitude_lo="0.000000000" latitude="46.360328450" longitude="17.798733501" split="0"/>
            <facade_node wall_type="Wall 1"/>
        </object>
        <object class="WED_FacadeNode" id="364" parent_id="328">
            <sources/>
            <viewers/>
            <children/>
            <hierarchy hidden="0" locked="0" name="Point"/>
            <point ctrl_latitude_hi="0.000000000" ctrl_latitude_lo="0.000000000" ctrl_longitude_hi="0.000000000" ctrl_longitude_lo="0.000000000" latitude="46.360344186" longitude="17.797706855" split="0"/>
            <facade_node wall_type="Wall 1"/>
        </object>
        <object class="WED_FacadeNode" id="365" parent_id="328">
            <sources/>
            <viewers/>
            <children/>
            <hierarchy hidden="0" locked="0" name="Point"/>
            <point ctrl_latitude_hi="0.000000000" ctrl_latitude_lo="0.000000000" ctrl_longitude_hi="0.000000000" ctrl_longitude_lo="0.000000000" latitude="46.360345617" longitude="17.797586690" split="0"/>
            <facade_node wall_type="Wall 1"/>
        </object>
        <object class="WED_Group" id="366" parent_id="4">
            <sources/>
            <viewers/>
            <children>
                <child id="368"/>
            </children>
            <hierarchy hidden="0" locked="1" name="D:\games\X-Plane 11\Custom Scenery\HungaryVFR-Medical-Helipads\Earth nav data\+40+010\+46+019.dsf"/>
        </object>
        <object class="WED_ExclusionZone" id="367" parent_id="368">
            <sources/>
            <viewers/>
            <children>
                <child id="369"/>
                <child id="370"/>
            </children>
            <hierarchy hidden="0" locked="0" name="Exclusion Zone"/>
            <excluzions>
                <exclusion value="Objects"/>
            </excluzions>
        </object>
        <object class="WED_Group" id="368" parent_id="366">
            <sources/>
            <viewers/>
            <children>
                <child id="367"/>
                <child id="371"/>
                <child id="374"/>
                <child id="377"/>
                <child id="380"/>
            </children>
            <hierarchy hidden="0" locked="0" name="Exclusion Zones"/>
        </object>
        <object class="WED_SimpleBoundaryNode" id="369" parent_id="367">
            <sources/>
            <viewers/>
            <children/>
            <hierarchy hidden="0" locked="0" name="e1"/>
            <point latitude="46.432373047" longitude="19.473163605"/>
        </object>
        <object class="WED_SimpleBoundaryNode" id="370" parent_id="367">
            <sources/>
            <viewers/>
            <children/>
            <hierarchy hidden="0" locked="0" name="e2"/>
            <point latitude="46.432586670" longitude="19.473894119"/>
        </object>
        <object class="WED_ExclusionZone" id="371" parent_id="368">
            <sources/>
            <viewers/>
            <children>
                <child id="372"/>
                <child id="373"/>
            </children>
            <hierarchy hidden="0" locked="0" name="Exclusion Zone"/>
            <excluzions>
                <exclusion value="Facades"/>
            </excluzions>
        </object>
        <object class="WED_SimpleBoundaryNode" id="372" parent_id="371">
            <sources/>
            <viewers/>
            <children/>
            <hierarchy hidden="0" locked="0" name="e1"/>
            <point latitude="46.432373047" longitude="19.473163605"/>
        </object>
        <object class="WED_SimpleBoundaryNode" id="373" parent_id="371">
            <sources/>
            <viewers/>
            <children/>
            <hierarchy hidden="0" locked="0" name="e2"/>
            <point latitude="46.432586670" longitude="19.473894119"/>
        </object>
        <object class="WED_ExclusionZone" id="374" parent_id="368">
            <sources/>
            <viewers/>
            <children>
                <child id="375"/>
                <child id="376"/>
            </children>
            <hierarchy hidden="0" locked="0" name="Exclusion Zone"/>
            <excluzions>
                <exclusion value="Forests"/>
            </excluzions>
        </object>
        <object class="WED_SimpleBoundaryNode" id="375" parent_id="374">
            <sources/>
            <viewers/>
            <children/>
            <hierarchy hidden="0" locked="0" name="e1"/>
            <point latitude="46.432384491" longitude="19.473264694"/>
        </object>
        <object class="WED_SimpleBoundaryNode" id="376" parent_id="374">
            <sources/>
            <viewers/>
            <children/>
            <hierarchy hidden="0" locked="0" name="e2"/>
            <point latitude="46.432445526" longitude="19.473926544"/>
        </object>
        <object class="WED_ExclusionZone" id="377" parent_id="368">
            <sources/>
            <viewers/>
            <children>
                <child id="378"/>
                <child id="379"/>
            </children>
            <hierarchy hidden="0" locked="0" name="Exclusion Zone"/>
            <excluzions>
                <exclusion value="Forests"/>
            </excluzions>
        </object>
        <object class="WED_SimpleBoundaryNode" id="378" parent_id="377">
            <sources/>
            <viewers/>
            <children/>
            <hierarchy hidden="0" locked="0" name="e1"/>
            <point latitude="46.432300568" longitude="19.473274231"/>
        </object>
        <object class="WED_SimpleBoundaryNode" id="379" parent_id="377">
            <sources/>
            <viewers/>
            <children/>
            <hierarchy hidden="0" locked="0" name="e2"/>
            <point latitude="46.432399750" longitude="19.473892212"/>
        </object>
        <object class="WED_ExclusionZone" id="380" parent_id="368">
            <sources/>
            <viewers/>
            <children>
                <child id="381"/>
                <child id="382"/>
            </children>
            <hierarchy hidden="0" locked="0" name="Exclusion Zone"/>
            <excluzions>
                <exclusion value="Forests"/>
            </excluzions>
        </object>
        <object class="WED_SimpleBoundaryNode" id="381" parent_id="380">
            <sources/>
            <viewers/>
            <children/>
            <hierarchy hidden="0" locked="0" name="e1"/>
            <point latitude="46.432422638" longitude="19.473068237"/>
        </object>
        <object class="WED_SimpleBoundaryNode" id="382" parent_id="380">
            <sources/>
            <viewers/>
            <children/>
            <hierarchy hidden="0" locked="0" name="e2"/>
            <point latitude="46.432723999" longitude="19.473941803"/>
        </object>
        <object class="WED_Group" id="383" parent_id="4">
            <sources/>
            <viewers/>
            <children>
                <child id="385"/>
                <child id="387"/>
            </children>
            <hierarchy hidden="0" locked="1" name="D:\games\X-Plane 11\Custom Scenery\HungaryVFR-Medical-Helipads\Earth nav data\+40+010\+47+016.dsf"/>
        </object>
        <object class="WED_ObjPlacement" id="384" parent_id="385">
            <sources/>
            <viewers/>
            <children/>
            <hierarchy hidden="0" locked="0" name="lib/g10/global_objects/rooftop_helipad_2.obj"/>
            <point heading="0.00" latitude="47.238422217" longitude="16.618300336"/>
            <obj_placement custom_msl="0" msl="0.000" resource="lib/g10/global_objects/rooftop_helipad_2.obj" show_level="1 Default"/>
        </object>
        <object class="WED_Group" id="385" parent_id="383">
            <sources/>
            <viewers/>
            <children>
                <child id="384"/>
            </children>
            <hierarchy hidden="0" locked="0" name="Objects"/>
        </object>
        <object class="WED_FacadePlacement" id="386" parent_id="387">
            <sources/>
            <viewers/>
            <children>
                <child id="388"/>
            </children>
            <hierarchy hidden="0" locked="0" name="facades/no/industrial/ind3.fac"/>
            <facade_placement height="20.0" pick_walls="1" resource="facades/no/industrial/ind3.fac" show_level="1 Default"/>
        </object>
        <object class="WED_Group" id="387" parent_id="383">
            <sources/>
            <viewers/>
            <children>
                <child id="386"/>
            </children>
            <hierarchy hidden="0" locked="0" name="Facades"/>
        </object>
        <object class="WED_FacadeRing" id="388" parent_id="386">
            <sources/>
            <viewers/>
            <children>
                <child id="389"/>
                <child id="390"/>
                <child id="391"/>
                <child id="392"/>
                <child id="393"/>
                <child id="394"/>
            </children>
            <hierarchy hidden="0" locked="0" name="Ring"/>
        </object>
        <object class="WED_FacadeNode" id="389" parent_id="388">
            <sources/>
            <viewers/>
            <children/>
            <hierarchy hidden="0" locked="0" name="Point"/>
            <point ctrl_latitude_hi="-0.000000477" ctrl_latitude_lo="0.000000477" ctrl_longitude_hi="-0.000000000" ctrl_longitude_lo="0.000000000" latitude="47.238375963" longitude="16.618057622" split="0"/>
            <facade_node wall_type="Wall 1"/>
        </object>
        <object class="WED_FacadeNode" id="390" parent_id="388">
            <sources/>
            <viewers/>
            <children/>
            <hierarchy hidden="0" locked="0" name="Point"/>
            <point ctrl_latitude_hi="-0.000000000" ctrl_latitude_lo="0.000000000" ctrl_longitude_hi="-0.000000477" ctrl_longitude_lo="0.000000477" latitude="47.238157092" longitude="16.618233577" split="0"/>
            <facade_node wall_type="Wall 1"/>
        </object>
        <object class="WED_FacadeNode" id="391" parent_id="388">
            <sources/>
            <viewers/>
            <children/>
            <hierarchy hidden="0" locked="0" name="Point"/>
            <point ctrl_latitude_hi="0.000000000" ctrl_latitude_lo="0.000000000" ctrl_longitude_hi="0.000000000" ctrl_longitude_lo="0.000000000" latitude="47.238365473" longitude="16.618916419" split="0"/>
            <facade_node wall_type="Wall 1"/>
        </object>
        <object class="WED_FacadeNode" id="392" parent_id="388">
            <sources/>
            <viewers/>
            <children/>
            <hierarchy hidden="0" locked="0" name="Point"/>
            <point ctrl_latitude_hi="-0.000000000" ctrl_latitude_lo="0.000000000" ctrl_longitude_hi="-0.000000477" ctrl_longitude_lo="0.000000477" latitude="47.238485161" longitude="16.618860151" split="0"/>
            <facade_node wall_type="Wall 1"/>
        </object>
        <object class="WED_FacadeNode" id="393" parent_id="388">
            <sources/>
            <viewers/>
            <children/>
            <hierarchy hidden="0" locked="0" name="Point"/>
            <point ctrl_latitude_hi="0.000002384" ctrl_latitude_lo="-0.000002384" ctrl_longitude_hi="0.000001907" ctrl_longitude_lo="-0.000001907" latitude="47.238566701" longitude="16.618899252" split="0"/>
            <facade_node wall_type="Wall 1"/>
        </object>
        <object class="WED_FacadeNode" id="394" parent_id="388">
            <sources/>
            <viewers/>
            <children/>
            <hierarchy hidden="0" locked="0" name="Point"/>
            <point ctrl_latitude_hi="-0.000000000" ctrl_latitude_lo="0.000000000" ctrl_longitude_hi="-0.000000477" ctrl_longitude_lo="0.000000477" latitude="47.238653010" longitude="16.618160620" split="0"/>
            <facade_node wall_type="Wall 1"/>
        </object>
        <object class="WED_Group" id="395" parent_id="4">
            <sources/>
            <viewers/>
            <children>
                <child id="397"/>
                <child id="410"/>
                <child id="461"/>
                <child id="412"/>
            </children>
            <hierarchy hidden="0" locked="1" name="D:\games\X-Plane 11\Custom Scenery\HungaryVFR-Medical-Helipads\Earth nav data\+40+010\+47+017.dsf"/>
        </object>
        <object class="WED_ExclusionZone" id="396" parent_id="397">
            <sources/>
            <viewers/>
            <children>
                <child id="398"/>
                <child id="399"/>
            </children>
            <hierarchy hidden="0" locked="0" name="Exclusion Zone"/>
            <excluzions>
                <exclusion value="Objects"/>
            </excluzions>
        </object>
        <object class="WED_Group" id="397" parent_id="395">
            <sources/>
            <viewers/>
            <children>
                <child id="396"/>
                <child id="400"/>
                <child id="403"/>
                <child id="406"/>
            </children>
            <hierarchy hidden="0" locked="0" name="Exclusion Zones"/>
        </object>
        <object class="WED_SimpleBoundaryNode" id="398" parent_id="396">
            <sources/>
            <viewers/>
            <children/>
            <hierarchy hidden="0" locked="0" name="e1"/>
            <point latitude="47.111164093" longitude="17.563888550"/>
        </object>
        <object class="WED_SimpleBoundaryNode" id="399" parent_id="396">
            <sources/>
            <viewers/>
            <children/>
            <hierarchy hidden="0" locked="0" name="e2"/>
            <point latitude="47.111568451" longitude="17.564514160"/>
        </object>
        <object class="WED_ExclusionZone" id="400" parent_id="397">
            <sources/>
            <viewers/>
            <children>
                <child id="401"/>
                <child id="402"/>
            </children>
            <hierarchy hidden="0" locked="0" name="Exclusion Zone"/>
            <excluzions>
                <exclusion value="Facades"/>
            </excluzions>
        </object>
        <object class="WED_SimpleBoundaryNode" id="401" parent_id="400">
            <sources/>
            <viewers/>
            <children/>
            <hierarchy hidden="0" locked="0" name="e1"/>
            <point latitude="47.111156464" longitude="17.563892365"/>
        </object>
        <object class="WED_SimpleBoundaryNode" id="402" parent_id="400">
            <sources/>
            <viewers/>
            <children/>
            <hierarchy hidden="0" locked="0" name="e2"/>
            <point latitude="47.111579895" longitude="17.564523697"/>
        </object>
        <object class="WED_ExclusionZone" id="403" parent_id="397">
            <sources/>
            <viewers/>
            <children>
                <child id="404"/>
                <child id="405"/>
            </children>
            <hierarchy hidden="0" locked="0" name="Exclusion Zone"/>
            <excluzions>
                <exclusion value="Objects"/>
            </excluzions>
        </object>
        <object class="WED_SimpleBoundaryNode" id="404" parent_id="403">
            <sources/>
            <viewers/>
            <children/>
            <hierarchy hidden="0" locked="0" name="e1"/>
            <point latitude="47.111213684" longitude="17.564014435"/>
        </object>
        <object class="WED_SimpleBoundaryNode" id="405" parent_id="403">
            <sources/>
            <viewers/>
            <children/>
            <hierarchy hidden="0" locked="0" name="e2"/>
            <point latitude="47.111419678" longitude="17.564329147"/>
        </object>
        <object class="WED_ExclusionZone" id="406" parent_id="397">
            <sources/>
            <viewers/>
            <children>
                <child id="407"/>
                <child id="408"/>
            </children>
            <hierarchy hidden="0" locked="0" name="Exclusion Zone"/>
            <excluzions>
                <exclusion value="Forests"/>
            </excluzions>
        </object>
        <object class="WED_SimpleBoundaryNode" id="407" parent_id="406">
            <sources/>
            <viewers/>
            <children/>
            <hierarchy hidden="0" locked="0" name="e1"/>
            <point latitude="47.111213684" longitude="17.564014435"/>
        </object>
        <object class="WED_SimpleBoundaryNode" id="408" parent_id="406">
            <sources/>
            <viewers/>
            <children/>
            <hierarchy hidden="0" locked="0" name="e2"/>
            <point latitude="47.111419678" longitude="17.564329147"/>
        </object>
        <object class="WED_ObjPlacement" id="409" parent_id="410">
            <sources/>
            <viewers/>
            <children/>
            <hierarchy hidden="0" locked="0" name="lib/g10/global_objects/rooftop_helipad_1.obj"/>
            <point heading="237.90" latitude="47.670873865" longitude="17.649173152"/>
            <obj_placement custom_msl="0" msl="0.000" resource="lib/g10/global_objects/rooftop_helipad_1.obj" show_level="1 Default"/>
        </object>
        <object class="WED_Group" id="410" parent_id="395">
            <sources/>
            <viewers/>
            <children>
                <child id="409"/>
            </children>
            <hierarchy hidden="0" locked="0" name="Objects"/>
        </object>
        <object class="WED_ForestPlacement" id="411" parent_id="412">
            <sources/>
            <viewers/>
            <children>
                <child id="413"/>
            </children>
            <hierarchy hidden="0" locked="0" name="opensceneryx/forests/trees/europe/pannonian/mixed.for"/>
            <forest_placement closed="Area" density="1.0" resource="opensceneryx/forests/trees/europe/pannonian/mixed.for"/>
        </object>
        <object class="WED_Group" id="412" parent_id="395">
            <sources/>
            <viewers/>
            <children>
                <child id="411"/>
                <child id="436"/>
            </children>
            <hierarchy hidden="0" locked="0" name="Forests"/>
        </object>
        <object class="WED_ForestRing" id="413" parent_id="411">
            <sources/>
            <viewers/>
            <children>
                <child id="414"/>
                <child id="415"/>
                <child id="416"/>
                <child id="417"/>
                <child id="418"/>
                <child id="419"/>
                <child id="420"/>
                <child id="421"/>
                <child id="422"/>
                <child id="423"/>
                <child id="424"/>
                <child id="425"/>
                <child id="426"/>
                <child id="427"/>
                <child id="428"/>
                <child id="429"/>
                <child id="430"/>
                <child id="431"/>
                <child id="432"/>
                <child id="433"/>
                <child id="434"/>
                <child id="435"/>
            </children>
            <hierarchy hidden="0" locked="0" name="Ring"/>
        </object>
        <object class="WED_SimpleBoundaryNode" id="414" parent_id="413">
            <sources/>
            <viewers/>
            <children/>
            <hierarchy hidden="0" locked="0" name="Point"/>
            <point latitude="47.111474308" longitude="17.563769837"/>
        </object>
        <object class="WED_SimpleBoundaryNode" id="415" parent_id="413">
            <sources/>
            <viewers/>
            <children/>
            <hierarchy hidden="0" locked="0" name="Point"/>
            <point latitude="47.111229686" longitude="17.563815614"/>
        </object>
        <object class="WED_SimpleBoundaryNode" id="416" parent_id="413">
            <sources/>
            <viewers/>
            <children/>
            <hierarchy hidden="0" locked="0" name="Point"/>
            <point latitude="47.110979343" longitude="17.563914321"/>
        </object>
        <object class="WED_SimpleBoundaryNode" id="417" parent_id="413">
            <sources/>
            <viewers/>
            <children/>
            <hierarchy hidden="0" locked="0" name="Point"/>
            <point latitude="47.110837243" longitude="17.564027810"/>
        </object>
        <object class="WED_SimpleBoundaryNode" id="418" parent_id="413">
            <sources/>
            <viewers/>
            <children/>
            <hierarchy hidden="0" locked="0" name="Point"/>
            <point latitude="47.110869669" longitude="17.564134146"/>
        </object>
        <object class="WED_SimpleBoundaryNode" id="419" parent_id="413">
            <sources/>
            <viewers/>
            <children/>
            <hierarchy hidden="0" locked="0" name="Point"/>
            <point latitude="47.110975528" longitude="17.564053559"/>
        </object>
        <object class="WED_SimpleBoundaryNode" id="420" parent_id="413">
            <sources/>
            <viewers/>
            <children/>
            <hierarchy hidden="0" locked="0" name="Point"/>
            <point latitude="47.111292153" longitude="17.563918135"/>
        </object>
        <object class="WED_SimpleBoundaryNode" id="421" parent_id="413">
            <sources/>
            <viewers/>
            <children/>
            <hierarchy hidden="0" locked="0" name="Point"/>
            <point latitude="47.111574922" longitude="17.563905261"/>
        </object>
        <object class="WED_SimpleBoundaryNode" id="422" parent_id="413">
            <sources/>
            <viewers/>
            <children/>
            <hierarchy hidden="0" locked="0" name="Point"/>
            <point latitude="47.111611162" longitude="17.564116026"/>
        </object>
        <object class="WED_SimpleBoundaryNode" id="423" parent_id="413">
            <sources/>
            <viewers/>
            <children/>
            <hierarchy hidden="0" locked="0" name="Point"/>
            <point latitude="47.111557755" longitude="17.564324884"/>
        </object>
        <object class="WED_SimpleBoundaryNode" id="424" parent_id="413">
            <sources/>
            <viewers/>
            <children/>
            <hierarchy hidden="0" locked="0" name="Point"/>
            <point latitude="47.111377031" longitude="17.564403563"/>
        </object>
        <object class="WED_SimpleBoundaryNode" id="425" parent_id="413">
            <sources/>
            <viewers/>
            <children/>
            <hierarchy hidden="0" locked="0" name="Point"/>
            <point latitude="47.111130026" longitude="17.564454585"/>
        </object>
        <object class="WED_SimpleBoundaryNode" id="426" parent_id="413">
            <sources/>
            <viewers/>
            <children/>
            <hierarchy hidden="0" locked="0" name="Point"/>
            <point latitude="47.111190108" longitude="17.564489395"/>
        </object>
        <object class="WED_SimpleBoundaryNode" id="427" parent_id="413">
            <sources/>
            <viewers/>
            <children/>
            <hierarchy hidden="0" locked="0" name="Point"/>
            <point latitude="47.111135271" longitude="17.564626726"/>
        </object>
        <object class="WED_SimpleBoundaryNode" id="428" parent_id="413">
            <sources/>
            <viewers/>
            <children/>
            <hierarchy hidden="0" locked="0" name="Point"/>
            <point latitude="47.111232547" longitude="17.564671073"/>
        </object>
        <object class="WED_SimpleBoundaryNode" id="429" parent_id="413">
            <sources/>
            <viewers/>
            <children/>
            <hierarchy hidden="0" locked="0" name="Point"/>
            <point latitude="47.111336976" longitude="17.564475090"/>
        </object>
        <object class="WED_SimpleBoundaryNode" id="430" parent_id="413">
            <sources/>
            <viewers/>
            <children/>
            <hierarchy hidden="0" locked="0" name="Point"/>
            <point latitude="47.111494335" longitude="17.564440280"/>
        </object>
        <object class="WED_SimpleBoundaryNode" id="431" parent_id="413">
            <sources/>
            <viewers/>
            <children/>
            <hierarchy hidden="0" locked="0" name="Point"/>
            <point latitude="47.111557755" longitude="17.564562829"/>
        </object>
        <object class="WED_SimpleBoundaryNode" id="432" parent_id="413">
            <sources/>
            <viewers/>
            <children/>
            <hierarchy hidden="0" locked="0" name="Point"/>
            <point latitude="47.111655032" longitude="17.564606699"/>
        </object>
        <object class="WED_SimpleBoundaryNode" id="433" parent_id="413">
            <sources/>
            <viewers/>
            <children/>
            <hierarchy hidden="0" locked="0" name="Point"/>
            <point latitude="47.111758507" longitude="17.564412623"/>
        </object>
        <object class="WED_SimpleBoundaryNode" id="434" parent_id="413">
            <sources/>
            <viewers/>
            <children/>
            <hierarchy hidden="0" locked="0" name="Point"/>
            <point latitude="47.111781872" longitude="17.564079309"/>
        </object>
        <object class="WED_SimpleBoundaryNode" id="435" parent_id="413">
            <sources/>
            <viewers/>
            <children/>
            <hierarchy hidden="0" locked="0" name="Point"/>
            <point latitude="47.111719883" longitude="17.563767929"/>
        </object>
        <object class="WED_ForestPlacement" id="436" parent_id="412">
            <sources/>
            <viewers/>
            <children>
                <child id="437"/>
            </children>
            <hierarchy hidden="0" locked="0" name="opensceneryx/forests/trees/europe/pannonian/mixed.for"/>
            <forest_placement closed="Area" density="1.0" resource="opensceneryx/forests/trees/europe/pannonian/mixed.for"/>
        </object>
        <object class="WED_ForestRing" id="437" parent_id="436">
            <sources/>
            <viewers/>
            <children>
                <child id="438"/>
                <child id="439"/>
                <child id="440"/>
                <child id="441"/>
                <child id="442"/>
                <child id="443"/>
                <child id="444"/>
                <child id="445"/>
                <child id="446"/>
                <child id="447"/>
                <child id="448"/>
                <child id="449"/>
                <child id="450"/>
                <child id="451"/>
                <child id="452"/>
                <child id="453"/>
                <child id="454"/>
                <child id="455"/>
                <child id="456"/>
                <child id="457"/>
                <child id="458"/>
                <child id="459"/>
            </children>
            <hierarchy hidden="0" locked="0" name="Ring"/>
        </object>
        <object class="WED_SimpleBoundaryNode" id="438" parent_id="437">
            <sources/>
            <viewers/>
            <children/>
            <hierarchy hidden="0" locked="0" name="Point"/>
            <point latitude="47.111007000" longitude="17.561986439"/>
        </object>
        <object class="WED_SimpleBoundaryNode" id="439" parent_id="437">
            <sources/>
            <viewers/>
            <children/>
            <hierarchy hidden="0" locked="0" name="Point"/>
            <point latitude="47.110730430" longitude="17.562010281"/>
        </object>
        <object class="WED_SimpleBoundaryNode" id="440" parent_id="437">
            <sources/>
            <viewers/>
            <children/>
            <hierarchy hidden="0" locked="0" name="Point"/>
            <point latitude="47.110635061" longitude="17.562030308"/>
        </object>
        <object class="WED_SimpleBoundaryNode" id="441" parent_id="437">
            <sources/>
            <viewers/>
            <children/>
            <hierarchy hidden="0" locked="0" name="Point"/>
            <point latitude="47.110484379" longitude="17.562263962"/>
        </object>
        <object class="WED_SimpleBoundaryNode" id="442" parent_id="437">
            <sources/>
            <viewers/>
            <children/>
            <hierarchy hidden="0" locked="0" name="Point"/>
            <point latitude="47.110665103" longitude="17.562395571"/>
        </object>
        <object class="WED_SimpleBoundaryNode" id="443" parent_id="437">
            <sources/>
            <viewers/>
            <children/>
            <hierarchy hidden="0" locked="0" name="Point"/>
            <point latitude="47.110751888" longitude="17.562254425"/>
        </object>
        <object class="WED_SimpleBoundaryNode" id="444" parent_id="437">
            <sources/>
            <viewers/>
            <children/>
            <hierarchy hidden="0" locked="0" name="Point"/>
            <point latitude="47.110792897" longitude="17.562113279"/>
        </object>
        <object class="WED_SimpleBoundaryNode" id="445" parent_id="437">
            <sources/>
            <viewers/>
            <children/>
            <hierarchy hidden="0" locked="0" name="Point"/>
            <point latitude="47.111075666" longitude="17.562099928"/>
        </object>
        <object class="WED_SimpleBoundaryNode" id="446" parent_id="437">
            <sources/>
            <viewers/>
            <children/>
            <hierarchy hidden="0" locked="0" name="Point"/>
            <point latitude="47.111034180" longitude="17.562261101"/>
        </object>
        <object class="WED_SimpleBoundaryNode" id="447" parent_id="437">
            <sources/>
            <viewers/>
            <children/>
            <hierarchy hidden="0" locked="0" name="Point"/>
            <point latitude="47.110977436" longitude="17.562391756"/>
        </object>
        <object class="WED_SimpleBoundaryNode" id="448" parent_id="437">
            <sources/>
            <viewers/>
            <children/>
            <hierarchy hidden="0" locked="0" name="Point"/>
            <point latitude="47.110761902" longitude="17.562361238"/>
        </object>
        <object class="WED_SimpleBoundaryNode" id="449" parent_id="437">
            <sources/>
            <viewers/>
            <children/>
            <hierarchy hidden="0" locked="0" name="Point"/>
            <point latitude="47.110622663" longitude="17.562530995"/>
        </object>
        <object class="WED_SimpleBoundaryNode" id="450" parent_id="437">
            <sources/>
            <viewers/>
            <children/>
            <hierarchy hidden="0" locked="0" name="Point"/>
            <point latitude="47.110619326" longitude="17.562630179"/>
        </object>
        <object class="WED_SimpleBoundaryNode" id="451" parent_id="437">
            <sources/>
            <viewers/>
            <children/>
            <hierarchy hidden="0" locked="0" name="Point"/>
            <point latitude="47.110758564" longitude="17.562856203"/>
        </object>
        <object class="WED_SimpleBoundaryNode" id="452" parent_id="437">
            <sources/>
            <viewers/>
            <children/>
            <hierarchy hidden="0" locked="0" name="Point"/>
            <point latitude="47.110877298" longitude="17.562808518"/>
        </object>
        <object class="WED_SimpleBoundaryNode" id="453" parent_id="437">
            <sources/>
            <viewers/>
            <children/>
            <hierarchy hidden="0" locked="0" name="Point"/>
            <point latitude="47.110908770" longitude="17.562574865"/>
        </object>
        <object class="WED_SimpleBoundaryNode" id="454" parent_id="437">
            <sources/>
            <viewers/>
            <children/>
            <hierarchy hidden="0" locked="0" name="Point"/>
            <point latitude="47.111109522" longitude="17.562575818"/>
        </object>
        <object class="WED_SimpleBoundaryNode" id="455" parent_id="437">
            <sources/>
            <viewers/>
            <children/>
            <hierarchy hidden="0" locked="0" name="Point"/>
            <point latitude="47.111265927" longitude="17.562712196"/>
        </object>
        <object class="WED_SimpleBoundaryNode" id="456" parent_id="437">
            <sources/>
            <viewers/>
            <children/>
            <hierarchy hidden="0" locked="0" name="Point"/>
            <point latitude="47.111397536" longitude="17.562350748"/>
        </object>
        <object class="WED_SimpleBoundaryNode" id="457" parent_id="437">
            <sources/>
            <viewers/>
            <children/>
            <hierarchy hidden="0" locked="0" name="Point"/>
            <point latitude="47.111233978" longitude="17.562375544"/>
        </object>
        <object class="WED_SimpleBoundaryNode" id="458" parent_id="437">
            <sources/>
            <viewers/>
            <children/>
            <hierarchy hidden="0" locked="0" name="Point"/>
            <point latitude="47.111335546" longitude="17.562119001"/>
        </object>
        <object class="WED_SimpleBoundaryNode" id="459" parent_id="437">
            <sources/>
            <viewers/>
            <children/>
            <hierarchy hidden="0" locked="0" name="Point"/>
            <point latitude="47.111294537" longitude="17.561957828"/>
        </object>
        <object class="WED_FacadePlacement" id="460" parent_id="461">
            <sources/>
            <viewers/>
            <children>
                <child id="462"/>
            </children>
            <hierarchy hidden="0" locked="0" name="facades/no/industrial/ind3.fac"/>
            <facade_placement height="30.0" pick_walls="0" resource="facades/no/industrial/ind3.fac" show_level="1 Default"/>
        </object>
        <object class="WED_Group" id="461" parent_id="395">
            <sources/>
            <viewers/>
            <children>
                <child id="460"/>
            </children>
            <hierarchy hidden="0" locked="0" name="Facades"/>
        </object>
        <object class="WED_FacadeRing" id="462" parent_id="460">
            <sources/>
            <viewers/>
            <children>
                <child id="463"/>
                <child id="464"/>
                <child id="465"/>
                <child id="466"/>
                <child id="467"/>
                <child id="468"/>
                <child id="469"/>
                <child id="470"/>
                <child id="471"/>
                <child id="472"/>
                <child id="473"/>
                <child id="474"/>
                <child id="475"/>
            </children>
            <hierarchy hidden="0" locked="0" name="Ring"/>
        </object>
        <object class="WED_FacadeNode" id="463" parent_id="462">
            <sources/>
            <viewers/>
            <children/>
            <hierarchy hidden="0" locked="0" name="Point"/>
            <point ctrl_latitude_hi="0.000000000" ctrl_latitude_lo="0.000000000" ctrl_longitude_hi="0.000000000" ctrl_longitude_lo="0.000000000" latitude="47.670711261" longitude="17.649112593" split="0"/>
            <facade_node wall_type="Wall 1"/>
        </object>
        <object class="WED_FacadeNode" id="464" parent_id="462">
            <sources/>
            <viewers/>
            <children/>
            <hierarchy hidden="0" locked="0" name="Point"/>
            <point ctrl_latitude_hi="0.000000000" ctrl_latitude_lo="0.000000000" ctrl_longitude_hi="0.000000000" ctrl_longitude_lo="0.000000000" latitude="47.670995937" longitude="17.649784466" split="0"/>
            <facade_node wall_type="Wall 1"/>
        </object>
        <object class="WED_FacadeNode" id="465" parent_id="462">
            <sources/>
            <viewers/>
            <children/>
            <hierarchy hidden="0" locked="0" name="Point"/>
            <point ctrl_latitude_hi="0.000000000" ctrl_latitude_lo="0.000000000" ctrl_longitude_hi="0.000000000" ctrl_longitude_lo="0.000000000" latitude="47.671072709" longitude="17.649718185" split="0"/>
            <facade_node wall_type="Wall 1"/>
        </object>
        <object class="WED_FacadeNode" id="466" parent_id="462">
            <sources/>
            <viewers/>
            <children/>
            <hierarchy hidden="0" locked="0" name="Point"/>
            <point ctrl_latitude_hi="0.000000000" ctrl_latitude_lo="0.000000000" ctrl_longitude_hi="0.000000000" ctrl_longitude_lo="0.000000000" latitude="47.671304456" longitude="17.650285630" split="0"/>
            <facade_node wall_type="Wall 1"/>
        </object>
        <object class="WED_FacadeNode" id="467" parent_id="462">
            <sources/>
            <viewers/>
            <children/>
            <hierarchy hidden="0" locked="0" name="Point"/>
            <point ctrl_latitude_hi="0.000000000" ctrl_latitude_lo="0.000000000" ctrl_longitude_hi="0.000000000" ctrl_longitude_lo="0.000000000" latitude="47.671276322" longitude="17.650394827" split="0"/>
            <facade_node wall_type="Wall 1"/>
        </object>
        <object class="WED_FacadeNode" id="468" parent_id="462">
            <sources/>
            <viewers/>
            <children/>
            <hierarchy hidden="0" locked="0" name="Point"/>
            <point ctrl_latitude_hi="0.000000000" ctrl_latitude_lo="0.000000000" ctrl_longitude_hi="0.000000000" ctrl_longitude_lo="0.000000000" latitude="47.671464675" longitude="17.650792039" split="0"/>
            <facade_node wall_type="Wall 1"/>
        </object>
        <object class="WED_FacadeNode" id="469" parent_id="462">
            <sources/>
            <viewers/>
            <children/>
            <hierarchy hidden="0" locked="0" name="Point"/>
            <point ctrl_latitude_hi="0.000000000" ctrl_latitude_lo="0.000000000" ctrl_longitude_hi="0.000000000" ctrl_longitude_lo="0.000000000" latitude="47.671526665" longitude="17.650755322" split="0"/>
            <facade_node wall_type="Wall 1"/>
        </object>
        <object class="WED_FacadeNode" id="470" parent_id="462">
            <sources/>
            <viewers/>
            <children/>
            <hierarchy hidden="0" locked="0" name="Point"/>
            <point ctrl_latitude_hi="0.000000000" ctrl_latitude_lo="0.000000000" ctrl_longitude_hi="0.000000000" ctrl_longitude_lo="0.000000000" latitude="47.671622511" longitude="17.650669013" split="0"/>
            <facade_node wall_type="Wall 1"/>
        </object>
        <object class="WED_FacadeNode" id="471" parent_id="462">
            <sources/>
            <viewers/>
            <children/>
            <hierarchy hidden="0" locked="0" name="Point"/>
            <point ctrl_latitude_hi="0.000000000" ctrl_latitude_lo="0.000000000" ctrl_longitude_hi="0.000000000" ctrl_longitude_lo="0.000000000" latitude="47.671434157" longitude="17.650249390" split="0"/>
            <facade_node wall_type="Wall 1"/>
        </object>
        <object class="WED_FacadeNode" id="472" parent_id="462">
            <sources/>
            <viewers/>
            <children/>
            <hierarchy hidden="0" locked="0" name="Point"/>
            <point ctrl_latitude_hi="0.000000000" ctrl_latitude_lo="0.000000000" ctrl_longitude_hi="0.000000000" ctrl_longitude_lo="0.000000000" latitude="47.671506161" longitude="17.650187877" split="0"/>
            <facade_node wall_type="Wall 1"/>
        </object>
        <object class="WED_FacadeNode" id="473" parent_id="462">
            <sources/>
            <viewers/>
            <children/>
            <hierarchy hidden="0" locked="0" name="Point"/>
            <point ctrl_latitude_hi="0.000000000" ctrl_latitude_lo="0.000000000" ctrl_longitude_hi="0.000000000" ctrl_longitude_lo="0.000000000" latitude="47.671161402" longitude="17.649294747" split="0"/>
            <facade_node wall_type="Wall 1"/>
        </object>
        <object class="WED_FacadeNode" id="474" parent_id="462">
            <sources/>
            <viewers/>
            <children/>
            <hierarchy hidden="0" locked="0" name="Point"/>
            <point ctrl_latitude_hi="0.000000000" ctrl_latitude_lo="0.000000000" ctrl_longitude_hi="0.000000000" ctrl_longitude_lo="0.000000000" latitude="47.671091783" longitude="17.649361982" split="0"/>
            <facade_node wall_type="Wall 1"/>
        </object>
        <object class="WED_FacadeNode" id="475" parent_id="462">
            <sources/>
            <viewers/>
            <children/>
            <hierarchy hidden="0" locked="0" name="Point"/>
            <point ctrl_latitude_hi="0.000000000" ctrl_latitude_lo="0.000000000" ctrl_longitude_hi="0.000000000" ctrl_longitude_lo="0.000000000" latitude="47.670913443" longitude="17.648926623" split="0"/>
            <facade_node wall_type="Wall 1"/>
        </object>
        <object class="WED_Group" id="476" parent_id="4">
            <sources/>
            <viewers/>
            <children>
                <child id="478"/>
                <child id="542"/>
                <child id="592"/>
                <child id="551"/>
            </children>
            <hierarchy hidden="0" locked="0" name="D:\games\X-Plane 11\Custom Scenery\HungaryVFR-Medical-Helipads\Earth nav data\+40+010\+47+019.dsf"/>
        </object>
        <object class="WED_ExclusionZone" id="477" parent_id="478">
            <sources/>
            <viewers/>
            <children>
                <child id="479"/>
                <child id="480"/>
            </children>
            <hierarchy hidden="0" locked="0" name="Exclusion Zone"/>
            <excluzions>
                <exclusion value="Forests"/>
            </excluzions>
        </object>
        <object class="WED_Group" id="478" parent_id="476">
            <sources/>
            <viewers/>
            <children>
                <child id="477"/>
                <child id="481"/>
                <child id="484"/>
                <child id="487"/>
                <child id="490"/>
                <child id="493"/>
                <child id="496"/>
                <child id="499"/>
                <child id="502"/>
                <child id="505"/>
                <child id="508"/>
                <child id="511"/>
                <child id="514"/>
                <child id="517"/>
                <child id="520"/>
                <child id="523"/>
                <child id="526"/>
                <child id="529"/>
                <child id="532"/>
                <child id="535"/>
                <child id="538"/>
            </children>
            <hierarchy hidden="0" locked="1" name="Exclusion Zones"/>
        </object>
        <object class="WED_SimpleBoundaryNode" id="479" parent_id="477">
            <sources/>
            <viewers/>
            <children/>
            <hierarchy hidden="0" locked="0" name="e1"/>
            <point latitude="47.510074615" longitude="19.000478745"/>
        </object>
        <object class="WED_SimpleBoundaryNode" id="480" parent_id="477">
            <sources/>
            <viewers/>
            <children/>
            <hierarchy hidden="0" locked="0" name="e2"/>
